[{"OBJECTID":1, "LOCATION":"HAWTHRONE ST 1 P/W/BROOKLYN AV", "LAT":40.65831, "LON":-73.94406, "LOCATION_T":"Outdoor"},
 {"OBJECTID":2, "LOCATION":"HAWTHRONE ST 1 P/N/O/BROOKLYN AV", "LAT":40.658, "LON":-73.94723, "LOCATION_T":"Outdoor"},
 {"OBJECTID":3, "LOCATION":"HAWTHRONE ST 1 P/N/O/BROOKLYN AV", "LAT":40.658, "LON":-73.94723, "LOCATION_T":"Outdoor"},
 {"OBJECTID":4, "LOCATION":"HAWTHRONE ST 1 P/S/O BROOKLYN AV", "LAT":40.65743, "LON":-73.94716, "LOCATION_T":"Outdoor"},
 {"OBJECTID":5, "LOCATION":"HAWTHRONE ST 1 P/S/O/BROOKLYN AV", "LAT":40.65743, "LON":-73.94716, "LOCATION_T":"Outdoor"},
 {"OBJECTID":6, "LOCATION":"MIDDLETOWN RD 1/P/W/O DWIGHT PL", "LAT":40.846314, "LON":-73.824472, "LOCATION_T":"Outdoor"},
 {"OBJECTID":7, "LOCATION":"MIDDLETOWN RD 1/P/W/O KENNELLWORTH PL", "LAT":40.847596, "LON":-73.82223, "LOCATION_T":"Outdoor"},
 {"OBJECTID":8, "LOCATION":"C/O MIDDLETOWN RD  /OHM AV", "LAT":40.848159, "LON":-73.821071, "LOCATION_T":"Outdoor"},
 {"OBJECTID":9, "LOCATION":"MIDDLETOWN RD   1/P/W/O STADIUM AV", "LAT":40.848322, "LON":-73.82075, "LOCATION_T":"Outdoor"},
 {"OBJECTID":10, "LOCATION":"IN PARK POLE 4/P/N/O  STADIUM AV", "LAT":40.849233, "LON":-73.82105, "LOCATION_T":"Outdoor"},
 {"OBJECTID":11, "LOCATION":"IN PARK POLE 4/P/N/O  STADIUM AV", "LAT":40.849196, "LON":-73.821055, "LOCATION_T":"Outdoor"},
 {"OBJECTID":12, "LOCATION":"IN PARK POLE 6/P/N/O  STADIUM AV", "LAT":40.850208, "LON":-73.821752, "LOCATION_T":"Outdoor"},
 {"OBJECTID":13, "LOCATION":"IN PARK POLE 6/P/N/O  STADIUM AV", "LAT":40.850232, "LON":-73.821777, "LOCATION_T":"Outdoor"},
 {"OBJECTID":14, "LOCATION":"right side of bandshell", "LAT":40.864437, "LON":-73.894553, "LOCATION_T":"Outdoor"},
 {"OBJECTID":15, "LOCATION":"left side of bandshell", "LAT":40.864458, "LON":-73.895115, "LOCATION_T":"Outdoor"},
 {"OBJECTID":16, "LOCATION":"Playground area", "LAT":40.864781, "LON":-73.894626, "LOCATION_T":"Outdoor"},
 {"OBJECTID":17, "LOCATION":"North area facing Poe cottage", "LAT":40.865167, "LON":-73.894227, "LOCATION_T":"Outdoor"},
 {"OBJECTID":18, "LOCATION":"SNACK BAR  NORTH WEST CORNER", "LAT":40.650721, "LON":-73.968489, "LOCATION_T":"Outdoor"},
 {"OBJECTID":19, "LOCATION":"SNACK BAR  SOUTH WEST CORNER", "LAT":40.65068, "LON":-73.96846, "LOCATION_T":"Outdoor"},
 {"OBJECTID":20, "LOCATION":"SNACK BAR  NORTH EASTCORNER", "LAT":40.650738, "LON":-73.968429, "LOCATION_T":"Outdoor"},
 {"OBJECTID":21, "LOCATION":"SNACK BAR  SOUTH EASTCORNER", "LAT":40.6507, "LON":-73.965843, "LOCATION_T":"Outdoor"},
 {"OBJECTID":22, "LOCATION":"BEHIND BOAT HOUSE  BTWN M-118 & M-119", "LAT":40.660469, "LON":-73.965168, "LOCATION_T":"Outdoor"},
 {"OBJECTID":23, "LOCATION":"BEHIND BOAT HOUSE  BTWN M-205 & M-206", "LAT":40.660842, "LON":-73.965121, "LOCATION_T":"Outdoor"},
 {"OBJECTID":24, "LOCATION":"NORTH BOAT HOUSE, ON THE LAWN ACROSS FROM M-200", "LAT":40.661197, "LON":-73.965252, "LOCATION_T":"Outdoor"},
 {"OBJECTID":25, "LOCATION":"Skate Rental Area", "LAT":40.657452, "LON":-73.963991, "LOCATION_T":"Outdoor"},
 {"OBJECTID":26, "LOCATION":"Skate Rental Area", "LAT":40.657452, "LON":-73.963991, "LOCATION_T":"Outdoor"},
 {"OBJECTID":27, "LOCATION":"Skate Rental Area", "LAT":40.657452, "LON":-73.963991, "LOCATION_T":"Outdoor"},
 {"OBJECTID":28, "LOCATION":"SKATEING RINK PARTY ROOM", "LAT":40.657001, "LON":-73.963697, "LOCATION_T":"Indoor"},
 {"OBJECTID":29, "LOCATION":"SKATEING RINK PARTY ROOM", "LAT":40.657001, "LON":-73.963697, "LOCATION_T":"Indoor"},
 {"OBJECTID":30, "LOCATION":"SKATEING RINK PARTY ROOM", "LAT":40.657001, "LON":-73.963697, "LOCATION_T":"Indoor"},
 {"OBJECTID":31, "LOCATION":"SKATING  RINK CAF\u00c3\u2030", "LAT":40.657001, "LON":-73.963697, "LOCATION_T":"Indoor"},
 {"OBJECTID":32, "LOCATION":"BIRCHAll AV INDOOR LOBBY", "LAT":40.84459, "LON":-73.8598, "LOCATION_T":"Indoor"},
 {"OBJECTID":33, "LOCATION":"BIRCHAll AV 6/P/E/O SAGAMORE ST", "LAT":40.84459, "LON":-73.8598, "LOCATION_T":"Outdoor"},
 {"OBJECTID":34, "LOCATION":"ON ROOF OF PARKS BLDG RIGHT SIDE", "LAT":40.685043, "LON":-73.918933, "LOCATION_T":"Outdoor"},
 {"OBJECTID":35, "LOCATION":"ON ROOF OF PARKS BLDG LEFT SIDE", "LAT":40.685032, "LON":-73.91907, "LOCATION_T":"Outdoor"},
 {"OBJECTID":36, "LOCATION":"SETON AV 5/P/S/O E 233RD ST", "LAT":40.887637, "LON":-73.835951, "LOCATION_T":"Outdoor"},
 {"OBJECTID":37, "LOCATION":"C/O  E 233RD ST  & WILDER AV", "LAT":40.888783, "LON":-73.840133, "LOCATION_T":"Outdoor"},
 {"OBJECTID":38, "LOCATION":"C/O EDEN TERR/CRAWFORD AV", "LAT":40.885284, "LON":-73.838521, "LOCATION_T":"Outdoor"},
 {"OBJECTID":39, "LOCATION":"PRATT AV 2/P/S/O SETON AV", "LAT":40.886622, "LON":-73.83497, "LOCATION_T":"Outdoor"},
 {"OBJECTID":40, "LOCATION":"ON MAST ON ROOF", "LAT":40.86473, "LON":-73.899037, "LOCATION_T":"Outdoor"},
 {"OBJECTID":41, "LOCATION":"W WING CORRIDOR DROP CEILING", "LAT":40.86473, "LON":-73.899037, "LOCATION_T":"Indoor"},
 {"OBJECTID":42, "LOCATION":"ROOF MOUNTED  BACK LEFT SIDE", "LAT":40.674013, "LON":-73.934698, "LOCATION_T":"Outdoor"},
 {"OBJECTID":43, "LOCATION":"ROOF MOUNTED  BACK RIGHT SIDE", "LAT":40.67404, "LON":-73.935053, "LOCATION_T":"Outdoor"},
 {"OBJECTID":44, "LOCATION":"ROOF MOUNTED   RIGHT SIDE", "LAT":40.673801, "LON":-73.935166, "LOCATION_T":"Outdoor"},
 {"OBJECTID":45, "LOCATION":"ROOF MOUNTED   LEFT  SIDE FRONT", "LAT":40.67343, "LON":-73.93463, "LOCATION_T":"Outdoor"},
 {"OBJECTID":46, "LOCATION":"ROOF MOUNTED   LEFT  SIDE", "LAT":40.673866, "LON":-73.934717, "LOCATION_T":"Outdoor"},
 {"OBJECTID":47, "LOCATION":"GYM WALL", "LAT":40.673805, "LON":-73.934785, "LOCATION_T":"Indoor"},
 {"OBJECTID":48, "LOCATION":"ACTIVITY ROOM", "LAT":40.673781, "LON":-73.935109, "LOCATION_T":"Indoor"},
 {"OBJECTID":49, "LOCATION":"MUSIC ROOM", "LAT":40.673755, "LON":-73.935014, "LOCATION_T":"Indoor"},
 {"OBJECTID":50, "LOCATION":"POOL AREA SIDE WALL", "LAT":40.673727, "LON":-73.934867, "LOCATION_T":"Indoor"},
 {"OBJECTID":51, "LOCATION":"LOBBY", "LAT":40.673695, "LON":-73.934935, "LOCATION_T":"Indoor"},
 {"OBJECTID":52, "LOCATION":"Lobby  Drop ceiling", "LAT":40.811544, "LON":-73.914138, "LOCATION_T":"Indoor"},
 {"OBJECTID":53, "LOCATION":"South East area", "LAT":40.719789, "LON":-73.981466, "LOCATION_T":"Outdoor"},
 {"OBJECTID":54, "LOCATION":"CRC Center", "LAT":40.720005, "LON":-73.981438, "LOCATION_T":"Indoor"},
 {"OBJECTID":55, "LOCATION":"3rd Floor Computer Resource Center", "LAT":40.812681, "LON":-73.939357, "LOCATION_T":"Indoor"},
 {"OBJECTID":56, "LOCATION":"3rd Floor Basketball Court", "LAT":40.812681, "LON":-73.939357, "LOCATION_T":"Indoor"},
 {"OBJECTID":57, "LOCATION":"5th Floor Roof Top", "LAT":40.812681, "LON":-73.939357, "LOCATION_T":"Outdoor"},
 {"OBJECTID":58, "LOCATION":"4th Floor Fitness", "LAT":40.812681, "LON":-73.939357, "LOCATION_T":"Indoor"},
 {"OBJECTID":59, "LOCATION":"2nd Floor Dance Rm", "LAT":40.812681, "LON":-73.939357, "LOCATION_T":"Indoor"},
 {"OBJECTID":60, "LOCATION":"2nd Floor Game Rm", "LAT":40.812681, "LON":-73.939357, "LOCATION_T":"Indoor"},
 {"OBJECTID":61, "LOCATION":"Lobby", "LAT":40.812681, "LON":-73.939357, "LOCATION_T":"Indoor"},
 {"OBJECTID":62, "LOCATION":"Park Area", "LAT":40.733142, "LON":-73.870981, "LOCATION_T":"Outdoor TWC Aerial"},
 {"OBJECTID":63, "LOCATION":"Park Area", "LAT":40.733186, "LON":-73.871128, "LOCATION_T":"Outdoor TWC Aerial"},
 {"OBJECTID":64, "LOCATION":"Outdoor - Caf\u00c3\u00a9 and Pier", "LAT":40.742094, "LON":-73.961265, "LOCATION_T":"Outdoor"},
 {"OBJECTID":65, "LOCATION":"Outdoor - Caf\u00c3\u00a9 and Park", "LAT":40.741994, "LON":-73.961256, "LOCATION_T":"Outdoor"},
 {"OBJECTID":66, "LOCATION":"64 St Edwards St", "LAT":40.695009, "LON":-73.979547, "LOCATION_T":"Outdoor"},
 {"OBJECTID":67, "LOCATION":"78 Monument Walk", "LAT":40.694623, "LON":-73.979909, "LOCATION_T":"Outdoor"},
 {"OBJECTID":68, "LOCATION":"80 Monument Walk", "LAT":40.694137, "LON":-73.979813, "LOCATION_T":"Outdoor"},
 {"OBJECTID":69, "LOCATION":"82 St Edwards St", "LAT":40.69454, "LON":-73.979416, "LOCATION_T":"Outdoor"},
 {"OBJECTID":70, "LOCATION":"120 N Portland Ave", "LAT":40.694626, "LON":-73.97518, "LOCATION_T":"Outdoor"},
 {"OBJECTID":71, "LOCATION":"102 Cumberland Walk", "LAT":40.694892, "LON":-73.975416, "LOCATION_T":"Outdoor"},
 {"OBJECTID":72, "LOCATION":"102 Cumberland Walk", "LAT":40.694868, "LON":-73.975024, "LOCATION_T":"Outdoor"},
 {"OBJECTID":73, "LOCATION":"138 Cumberland Walk", "LAT":40.694394, "LON":-73.975054, "LOCATION_T":"Outdoor"},
 {"OBJECTID":74, "LOCATION":"120 N Portland Ave", "LAT":40.694557, "LON":-73.975336, "LOCATION_T":"Outdoor"},
 {"OBJECTID":75, "LOCATION":"132 Carlton Ave", "LAT":40.693392, "LON":-73.973923, "LOCATION_T":"Outdoor"},
 {"OBJECTID":76, "LOCATION":"138 Cumberland Walk", "LAT":40.694382, "LON":-73.974614, "LOCATION_T":"Outdoor"},
 {"OBJECTID":77, "LOCATION":"277 Myrtle Ave", "LAT":40.693724, "LON":-73.977351, "LOCATION_T":"Outdoor"},
 {"OBJECTID":78, "LOCATION":"152 N Elliott Walk", "LAT":40.69374, "LON":-73.977796, "LOCATION_T":"Outdoor"},
 {"OBJECTID":79, "LOCATION":"160 N Elliott Walk", "LAT":40.69368, "LON":-73.977246, "LOCATION_T":"Outdoor"},
 {"OBJECTID":80, "LOCATION":"293 Myrtle Ave", "LAT":40.693509, "LON":-73.976981, "LOCATION_T":"Outdoor"},
 {"OBJECTID":81, "LOCATION":"297 Myrtle Ave", "LAT":40.693493, "LON":-73.976635, "LOCATION_T":"Outdoor"},
 {"OBJECTID":82, "LOCATION":"331 Myrtle Ave", "LAT":40.693442, "LON":-73.973193, "LOCATION_T":"Outdoor"},
 {"OBJECTID":129, "LOCATION":"NW Field by Rec Center", "LAT":40.846889, "LON":-73.941333, "LOCATION_T":"Outdoor"},
 {"OBJECTID":130, "LOCATION":"SW Field by Rec Center", "LAT":40.846472, "LON":-73.941722, "LOCATION_T":"Outdoor"},
 {"OBJECTID":131, "LOCATION":"East Entrance and Playgrround", "LAT":40.8462, "LON":-73.941347, "LOCATION_T":"Outdoor"},
 {"OBJECTID":132, "LOCATION":"BB Court and East Entrance", "LAT":40.846444, "LON":-73.939981, "LOCATION_T":"Outdoor"},
 {"OBJECTID":133, "LOCATION":"Recreation Rm", "LAT":40.846686, "LON":-73.940883, "LOCATION_T":"Indoor"},
 {"OBJECTID":134, "LOCATION":"Entire Park", "LAT":40.7931, "LON":-73.9354, "LOCATION_T":"Outdoor"},
 {"OBJECTID":135, "LOCATION":"Track, Ballfields", "LAT":40.777, "LON":-73.9252, "LOCATION_T":"Outdoor"},
 {"OBJECTID":136, "LOCATION":"Entire Park", "LAT":40.7221, "LON":-73.8466, "LOCATION_T":"Outdoor"},
 {"OBJECTID":137, "LOCATION":"Area near Ballfields", "LAT":40.6173, "LON":-74.1063, "LOCATION_T":"Outdoor"},
 {"OBJECTID":138, "LOCATION":"Gym and Multipurpose Rm", "LAT":40.846562, "LON":-73.94086, "LOCATION_T":"Indoor"},
 {"OBJECTID":139, "LOCATION":"Computer Resource Rm", "LAT":40.846383, "LON":-73.940706, "LOCATION_T":"Indoor"},
 {"OBJECTID":140, "LOCATION":"Park and stadium area", "LAT":40.824778, "LON":-73.942178, "LOCATION_T":"Outdoor"},
 {"OBJECTID":141, "LOCATION":"Library", "LAT":40.824131, "LON":-73.942464, "LOCATION_T":"Indoor"},
 {"OBJECTID":142, "LOCATION":"Dugout", "LAT":40.824131, "LON":-73.942464, "LOCATION_T":"Indoor"},
 {"OBJECTID":143, "LOCATION":"Computer Lab", "LAT":40.824131, "LON":-73.942464, "LOCATION_T":"Indoor"},
 {"OBJECTID":144, "LOCATION":"Gymnasium", "LAT":40.824131, "LON":-73.942464, "LOCATION_T":"Indoor"},
 {"OBJECTID":145, "LOCATION":"Restaurant area", "LAT":40.589, "LON":-74.0667, "LOCATION_T":"Outdoor"},
 {"OBJECTID":146, "LOCATION":"Entire Park", "LAT":40.7148, "LON":-74.0028, "LOCATION_T":"Outdoor"},
 {"OBJECTID":147, "LOCATION":"Around the Field House", "LAT":40.7265, "LON":-73.9817, "LOCATION_T":"Outdoor"},
 {"OBJECTID":148, "LOCATION":"Queens Zoo in Flushing Meadows Corona Park", "LAT":40.7432, "LON":-73.8443, "LOCATION_T":"Outdoor"},
 {"OBJECTID":174, "LOCATION":"Admin Office", "LAT":40.824131, "LON":-73.942464, "LOCATION_T":"Indoor"},
 {"OBJECTID":175, "LOCATION":"Maintenance", "LAT":40.824131, "LON":-73.942464, "LOCATION_T":"Indoor"},
 {"OBJECTID":176, "LOCATION":"Juniper Blvd South East", "LAT":40.718812, "LON":-73.88536, "LOCATION_T":"Outdoor TWC Aerial"},
 {"OBJECTID":177, "LOCATION":"Playground", "LAT":40.720231, "LON":-73.877806, "LOCATION_T":"Outdoor"},
 {"OBJECTID":178, "LOCATION":"Comfort Station", "LAT":40.720598, "LON":-73.877337, "LOCATION_T":"Outdoor"},
 {"OBJECTID":179, "LOCATION":"Sitting Area", "LAT":40.721026, "LON":-73.877935, "LOCATION_T":"Outdoor"},
 {"OBJECTID":180, "LOCATION":"Juniper Blvd South West", "LAT":40.71921, "LON":-73.885335, "LOCATION_T":"Outdoor TWC Aerial"},
 {"OBJECTID":181, "LOCATION":"160 Schermerhorn St.", "LAT":40.689319, "LON":-73.987162, "LOCATION_T":"Outdoor"},
 {"OBJECTID":182, "LOCATION":"162 Flatbush Ave. Extension (Pole)", "LAT":40.694693, "LON":-73.983849, "LOCATION_T":"Outdoor"},
 {"OBJECTID":183, "LOCATION":"162 Flatbush Ave. Extension (Pole)", "LAT":40.694693, "LON":-73.983849, "LOCATION_T":"Outdoor"},
 {"OBJECTID":184, "LOCATION":"196 Flatbush Ave. Extension (Pole)", "LAT":40.693721, "LON":-73.983328, "LOCATION_T":"Outdoor"},
 {"OBJECTID":185, "LOCATION":"196 Flatbush Ave. Extension (Pole)", "LAT":40.693721, "LON":-73.983328, "LOCATION_T":"Outdoor"},
 {"OBJECTID":186, "LOCATION":"2 Metrotech Center", "LAT":40.69335, "LON":-73.985788, "LOCATION_T":"Outdoor"},
 {"OBJECTID":187, "LOCATION":"2 Metrotech Center", "LAT":40.69335, "LON":-73.985788, "LOCATION_T":"Outdoor"},
 {"OBJECTID":188, "LOCATION":"20 Lafayette Ave.", "LAT":40.686371, "LON":-73.978541, "LOCATION_T":"Outdoor"},
 {"OBJECTID":189, "LOCATION":"20 Lafayette Ave.", "LAT":40.686371, "LON":-73.978541, "LOCATION_T":"Outdoor"},
 {"OBJECTID":190, "LOCATION":"254 Flatbush Ave. Extension (pole)", "LAT":40.692723, "LON":-73.983025, "LOCATION_T":"Outdoor"},
 {"OBJECTID":191, "LOCATION":"255 Duffield St.", "LAT":40.690406, "LON":-73.983931, "LOCATION_T":"Outdoor"},
 {"OBJECTID":192, "LOCATION":"255 Duffield St.", "LAT":40.690406, "LON":-73.983931, "LOCATION_T":"Outdoor"},
 {"OBJECTID":193, "LOCATION":"280 Flatbush Ave. Extension (Pole)", "LAT":40.692087, "LON":-73.982587, "LOCATION_T":"Outdoor"},
 {"OBJECTID":194, "LOCATION":"280 Flatbush Ave. Extension (Pole)", "LAT":40.692087, "LON":-73.982587, "LOCATION_T":"Outdoor"},
 {"OBJECTID":195, "LOCATION":"286 Flatbush Ave. Extension (Pole)", "LAT":40.69189, "LON":-73.982488, "LOCATION_T":"Outdoor"},
 {"OBJECTID":196, "LOCATION":"333 Adams St.", "LAT":40.693625, "LON":-73.988519, "LOCATION_T":"Outdoor"},
 {"OBJECTID":197, "LOCATION":"333 Adams St.", "LAT":40.693636, "LON":-73.988347, "LOCATION_T":"Outdoor"},
 {"OBJECTID":198, "LOCATION":"333 Adams St.", "LAT":40.693636, "LON":-73.988347, "LOCATION_T":"Outdoor"},
 {"OBJECTID":199, "LOCATION":"333 Adams St.", "LAT":40.693636, "LON":-73.988347, "LOCATION_T":"Outdoor"},
 {"OBJECTID":200, "LOCATION":"333 Adams St.", "LAT":40.693636, "LON":-73.988347, "LOCATION_T":"Outdoor"},
 {"OBJECTID":201, "LOCATION":"333 Adams St.", "LAT":40.693636, "LON":-73.988347, "LOCATION_T":"Outdoor"},
 {"OBJECTID":202, "LOCATION":"333 Adams St.", "LAT":40.693636, "LON":-73.988347, "LOCATION_T":"Outdoor"},
 {"OBJECTID":203, "LOCATION":"333 Jay St.", "LAT":40.69401, "LON":-73.986706, "LOCATION_T":"Outdoor"},
 {"OBJECTID":204, "LOCATION":"333 Jay St.", "LAT":40.69401, "LON":-73.986706, "LOCATION_T":"Outdoor"},
 {"OBJECTID":205, "LOCATION":"333 Jay St.", "LAT":40.69401, "LON":-73.986706, "LOCATION_T":"Outdoor"},
 {"OBJECTID":206, "LOCATION":"333 Jay St.", "LAT":40.69401, "LON":-73.986706, "LOCATION_T":"Outdoor"},
 {"OBJECTID":207, "LOCATION":"333 Jay St.", "LAT":40.69401, "LON":-73.986706, "LOCATION_T":"Outdoor"},
 {"OBJECTID":208, "LOCATION":"34 Dekalb Ave. (Pole)", "LAT":40.689942, "LON":-73.982158, "LOCATION_T":"Outdoor"},
 {"OBJECTID":209, "LOCATION":"34 Dekalb Ave. (Pole)", "LAT":40.689942, "LON":-73.982158, "LOCATION_T":"Outdoor"},
 {"OBJECTID":210, "LOCATION":"356 Fulton St.", "LAT":40.691738, "LON":-73.988131, "LOCATION_T":"Outdoor"},
 {"OBJECTID":211, "LOCATION":"356 Fulton St.", "LAT":40.691738, "LON":-73.988131, "LOCATION_T":"Outdoor"},
 {"OBJECTID":212, "LOCATION":"370 Jay St. (Pole)", "LAT":40.693348, "LON":-73.987419, "LOCATION_T":"Outdoor"},
 {"OBJECTID":213, "LOCATION":"375 Jay St.", "LAT":40.692417, "LON":-73.987117, "LOCATION_T":"Outdoor"},
 {"OBJECTID":214, "LOCATION":"375 Jay St.", "LAT":40.692417, "LON":-73.987117, "LOCATION_T":"Outdoor"},
 {"OBJECTID":215, "LOCATION":"375 Jay St.", "LAT":40.692417, "LON":-73.987117, "LOCATION_T":"Outdoor"},
 {"OBJECTID":216, "LOCATION":"409 Fulton St.", "LAT":40.692178, "LON":-73.988304, "LOCATION_T":"Outdoor"},
 {"OBJECTID":217, "LOCATION":"409 Fulton St.", "LAT":40.692023, "LON":-73.988433, "LOCATION_T":"Outdoor"},
 {"OBJECTID":218, "LOCATION":"409 Fulton St.", "LAT":40.691976, "LON":-73.988311, "LOCATION_T":"Outdoor"},
 {"OBJECTID":219, "LOCATION":"409 Fulton St.", "LAT":40.692174, "LON":-73.988669, "LOCATION_T":"Outdoor"},
 {"OBJECTID":220, "LOCATION":"409 Fulton St.", "LAT":40.692178, "LON":-73.988304, "LOCATION_T":"Outdoor"},
 {"OBJECTID":221, "LOCATION":"442 Fulton St. (Pole)", "LAT":40.690364, "LON":-73.984435, "LOCATION_T":"Outdoor"},
 {"OBJECTID":222, "LOCATION":"442 Fulton St. (Pole)", "LAT":40.690364, "LON":-73.984435, "LOCATION_T":"Outdoor"},
 {"OBJECTID":223, "LOCATION":"110 Livingston St.", "LAT":40.690883, "LON":-73.989635, "LOCATION_T":"Outdoor"},
 {"OBJECTID":224, "LOCATION":"110 Livingston St.", "LAT":40.690883, "LON":-73.989635, "LOCATION_T":"Outdoor"},
 {"OBJECTID":225, "LOCATION":"125 Court St.", "LAT":40.689985, "LON":-73.991995, "LOCATION_T":"Outdoor"},
 {"OBJECTID":226, "LOCATION":"125 Court St.", "LAT":40.689906, "LON":-73.991944, "LOCATION_T":"Outdoor"},
 {"OBJECTID":231, "LOCATION":"125 Court St.", "LAT":40.689997, "LON":-73.992, "LOCATION_T":"Outdoor"},
 {"OBJECTID":232, "LOCATION":"125 Court St.", "LAT":40.690022, "LON":-73.991897, "LOCATION_T":"Outdoor"},
 {"OBJECTID":233, "LOCATION":"125 Flatbush Ave. Extension", "LAT":40.695578, "LON":-73.98397, "LOCATION_T":"Outdoor"},
 {"OBJECTID":234, "LOCATION":"160 Livingston St. (Pole #1)", "LAT":40.689924, "LON":-73.988117, "LOCATION_T":"Outdoor"},
 {"OBJECTID":235, "LOCATION":"160 Livingston St. (Pole #1)", "LAT":40.689924, "LON":-73.988117, "LOCATION_T":"Outdoor"},
 {"OBJECTID":236, "LOCATION":"160 Livingston St. (Pole #2)", "LAT":40.689319, "LON":-73.987162, "LOCATION_T":"Outdoor"},
 {"OBJECTID":237, "LOCATION":"160 Livingston St. (Pole #2)", "LAT":40.690296, "LON":-73.987846, "LOCATION_T":"Outdoor"},
 {"OBJECTID":238, "LOCATION":"160 Schermerhorn St.", "LAT":40.689319, "LON":-73.987162, "LOCATION_T":"Outdoor"},
 {"OBJECTID":247, "LOCATION":"150 WEST 100 STREET", "LAT":40.7959199908, "LON":-73.9678485166, "LOCATION_T":"Library"},
 {"OBJECTID":248, "LOCATION":"320 CITY ISLAND AVENUE", "LAT":40.8476919036, "LON":-73.786366589, "LOCATION_T":"Library"},
 {"OBJECTID":249, "LOCATION":"1580 ROCKAWAY PARKWAY", "LAT":40.6422084532, "LON":-73.8995244212, "LOCATION_T":"Library"},
 {"OBJECTID":250, "LOCATION":"2636 EAST 14 STREET", "LAT":40.5869999561, "LON":-73.9554283575, "LOCATION_T":"Library"},
 {"OBJECTID":251, "LOCATION":"4355 KATONAH AVENUE", "LAT":40.9004399098, "LON":-73.867942, "LOCATION_T":"Library"},
 {"OBJECTID":252, "LOCATION":"7 WOLCOTT STREET", "LAT":40.6752551911, "LON":-74.0103512916, "LOCATION_T":"Library"},
 {"OBJECTID":253, "LOCATION":"725 ST MARKS AVENUE", "LAT":40.6753708519, "LON":-73.9485661367, "LOCATION_T":"Library"},
 {"OBJECTID":254, "LOCATION":"256-04 UNION TURNPIKE", "LAT":40.7451505182, "LON":-73.7148377572, "LOCATION_T":"Library"},
 {"OBJECTID":255, "LOCATION":"285 EAST 205 STREET", "LAT":40.874379814, "LON":-73.8783843503, "LOCATION_T":"Library"},
 {"OBJECTID":256, "LOCATION":"312 BEACH 54 STREET", "LAT":40.593146783, "LON":-73.7840400286, "LOCATION_T":"Library"},
 {"OBJECTID":257, "LOCATION":"1000 ST NICHOLAS AVENUE", "LAT":40.834515209, "LON":-73.9396745829, "LOCATION_T":"Library"},
 {"OBJECTID":258, "LOCATION":"2808 GERRITSEN AVENUE", "LAT":40.5913570544, "LON":-73.92396467, "LOCATION_T":"Library"},
 {"OBJECTID":259, "LOCATION":"107 NORMAN AVENUE", "LAT":40.7260506623, "LON":-73.9506902935, "LOCATION_T":"Library"},
 {"OBJECTID":260, "LOCATION":"2085 HONEYWELL AVENUE", "LAT":40.8446740907, "LON":-73.8830446904, "LOCATION_T":"Library"},
 {"OBJECTID":261, "LOCATION":"321 EAST 140 STREET", "LAT":40.8115962129, "LON":-73.9243663402, "LOCATION_T":"Library"},
 {"OBJECTID":262, "LOCATION":"204-01 HOLLIS AVENUE", "LAT":40.7070105556, "LON":-73.7537966712, "LOCATION_T":"Library"},
 {"OBJECTID":263, "LOCATION":"1465 YORK AVENUE", "LAT":40.7706525435, "LON":-73.951341694, "LOCATION_T":"Library"},
 {"OBJECTID":264, "LOCATION":"85-41 FOREST PARKWAY", "LAT":40.6945465785, "LON":-73.8614464594, "LOCATION_T":"Library"},
 {"OBJECTID":265, "LOCATION":"127 EAST 58 STREET", "LAT":40.7621860177, "LON":-73.9693817047, "LOCATION_T":"Library"},
 {"OBJECTID":266, "LOCATION":"331 EAST 10 STREET", "LAT":40.7273073125, "LON":-73.9804076673, "LOCATION_T":"Library"},
 {"OBJECTID":267, "LOCATION":"14-01 ASTORIA BOULEVARD", "LAT":40.7723828899, "LON":-73.9287188126, "LOCATION_T":"Library"},
 {"OBJECTID":268, "LOCATION":"8 THOMAS S BOYLAND STREET", "LAT":40.6848100477, "LON":-73.915132416, "LOCATION_T":"Library"},
 {"OBJECTID":269, "LOCATION":"2049 ASCH LOOP NORTH", "LAT":40.8705019246, "LON":-73.8286579311, "LOCATION_T":"Library"},
 {"OBJECTID":270, "LOCATION":"7430 AMBOY ROAD", "LAT":40.5095311239, "LON":-74.2441067083, "LOCATION_T":"Library"},
 {"OBJECTID":271, "LOCATION":"503 WEST 145 STREET", "LAT":40.8256723738, "LON":-73.9480324189, "LOCATION_T":"Library"},
 {"OBJECTID":272, "LOCATION":"280 WEST 231 STREET", "LAT":40.8803222773, "LON":-73.9079833715, "LOCATION_T":"Library"},
 {"OBJECTID":273, "LOCATION":"94-11 217 STREET", "LAT":40.7198855543, "LON":-73.7390438189, "LOCATION_T":"Library"},
 {"OBJECTID":274, "LOCATION":"203 WEST 115 STREET", "LAT":40.802979882, "LON":-73.9535307443, "LOCATION_T":"Library"},
 {"OBJECTID":275, "LOCATION":"1985 WESTCHESTER AVENUE", "LAT":40.8337362974, "LON":-73.8583552177, "LOCATION_T":"Library"},
 {"OBJECTID":276, "LOCATION":"72-33 VLEIGH PLACE", "LAT":40.7259184856, "LON":-73.8207190696, "LOCATION_T":"Library"},
 {"OBJECTID":277, "LOCATION":"112 EAST 96 STREET", "LAT":40.7859597986, "LON":-73.9518056716, "LOCATION_T":"Library"},
 {"OBJECTID":278, "LOCATION":"742 10 AVENUE", "LAT":40.7649346184, "LON":-73.9912208178, "LOCATION_T":"Library"},
 {"OBJECTID":279, "LOCATION":"132 CANAL STREET", "LAT":40.6262376099, "LON":-74.0778460903, "LOCATION_T":"Library"},
 {"OBJECTID":280, "LOCATION":"249-01 NORTHERN BOULEVARD", "LAT":40.768225432, "LON":-73.7382294408, "LOCATION_T":"Library"},
 {"OBJECTID":281, "LOCATION":"455 5 AVENUE", "LAT":40.7518915617, "LON":-73.9816985108, "LOCATION_T":"Library"},
 {"OBJECTID":282, "LOCATION":"75 BENNETT STREET", "LAT":40.637585616, "LON":-74.1311046151, "LOCATION_T":"Library"},
 {"OBJECTID":283, "LOCATION":"1197 SUTTER AVENUE", "LAT":40.6727060872, "LON":-73.8740334898, "LOCATION_T":"Library"},
 {"OBJECTID":284, "LOCATION":"10-43 41 AVENUE", "LAT":40.7552001994, "LON":-73.9442238947, "LOCATION_T":"Library"},
 {"OBJECTID":285, "LOCATION":"360 IRVING AVENUE", "LAT":40.6974822489, "LON":-73.9122106175, "LOCATION_T":"Library"},
 {"OBJECTID":286, "LOCATION":"21-25 ROBIN ROAD", "LAT":40.5958181468, "LON":-74.0629804652, "LOCATION_T":"Library"},
 {"OBJECTID":287, "LOCATION":"2525 CONEY ISLAND AVENUE", "LAT":40.5952368631, "LON":-73.9605993696, "LOCATION_T":"Library"},
 {"OBJECTID":288, "LOCATION":"6802 FT HAMILTON PARKWAY", "LAT":40.6292120977, "LON":-74.0118696682, "LOCATION_T":"Library"},
 {"OBJECTID":289, "LOCATION":"25-01 JACKSON AVENUE", "LAT":40.7470624208, "LON":-73.9442436779, "LOCATION_T":"Library"},
 {"OBJECTID":290, "LOCATION":"2035 NOSTRAND AVENUE", "LAT":40.6357412846, "LON":-73.9476200285, "LOCATION_T":"Library"},
 {"OBJECTID":291, "LOCATION":"121-23 14 AVENUE", "LAT":40.786249136, "LON":-73.8460132784, "LOCATION_T":"Library"},
 {"OBJECTID":292, "LOCATION":"108-19 71 AVENUE", "LAT":40.7221469532, "LON":-73.8430149968, "LOCATION_T":"Library"},
 {"OBJECTID":293, "LOCATION":"5 CENTRAL AVENUE", "LAT":40.6417853679, "LON":-74.0766457652, "LOCATION_T":"Library"},
 {"OBJECTID":294, "LOCATION":"3060 MIDDLETOWN ROAD", "LAT":40.8442926727, "LON":-73.8278899073, "LOCATION_T":"Library"},
 {"OBJECTID":295, "LOCATION":"3874 SEDGWICK AVENUE", "LAT":40.8827597562, "LON":-73.8939224115, "LOCATION_T":"Library"},
 {"OBJECTID":296, "LOCATION":"910 MORRIS AVENUE", "LAT":40.8265919268, "LON":-73.9175826513, "LOCATION_T":"Library"},
 {"OBJECTID":297, "LOCATION":"155-06 ROOSEVELT AVENUE", "LAT":40.7637503163, "LON":-73.8098334843, "LOCATION_T":"Library"},
 {"OBJECTID":298, "LOCATION":"790 BUSHWICK AVENUE", "LAT":40.6948167, "LON":-73.9283986674, "LOCATION_T":"Library"},
 {"OBJECTID":299, "LOCATION":"3650 NOSTRAND AVENUE", "LAT":40.5948615151, "LON":-73.941124923, "LOCATION_T":"Library"},
 {"OBJECTID":300, "LOCATION":"144-20 243 STREET", "LAT":40.6599636231, "LON":-73.7399110132, "LOCATION_T":"Library"},
 {"OBJECTID":301, "LOCATION":"665 NEW LOTS AVENUE", "LAT":40.6651593697, "LON":-73.8860705368, "LOCATION_T":"Library"},
 {"OBJECTID":302, "LOCATION":"610 EAST 169 STREET", "LAT":40.8312637226, "LON":-73.9017889765, "LOCATION_T":"Library"},
 {"OBJECTID":303, "LOCATION":"98-30 57 AVENUE", "LAT":40.7374341379, "LON":-73.8616559293, "LOCATION_T":"Library"},
 {"OBJECTID":304, "LOCATION":"1743 86 STREET", "LAT":40.60800935, "LON":-74.0033765451, "LOCATION_T":"Library"},
 {"OBJECTID":305, "LOCATION":"660 SOUNDVIEW AVENUE", "LAT":40.8187093522, "LON":-73.8628899561, "LOCATION_T":"Library"},
 {"OBJECTID":306, "LOCATION":"2147 BARNES AVENUE", "LAT":40.8548777848, "LON":-73.8641435801, "LOCATION_T":"Library"},
 {"OBJECTID":307, "LOCATION":"1000 UTICA AVENUE", "LAT":40.6486367052, "LON":-73.9303739197, "LOCATION_T":"Library"},
 {"OBJECTID":308, "LOCATION":"35-51 81 STREET", "LAT":40.7501960856, "LON":-73.8850693247, "LOCATION_T":"Library"},
 {"OBJECTID":309, "LOCATION":"209 WEST 23 STREET", "LAT":40.7445100483, "LON":-73.9959597161, "LOCATION_T":"Library"},
 {"OBJECTID":310, "LOCATION":"91-41 63 DRIVE", "LAT":40.7273165603, "LON":-73.864502826, "LOCATION_T":"Library"},
 {"OBJECTID":311, "LOCATION":"8202 13 AVENUE", "LAT":40.616308137, "LON":-74.0119885202, "LOCATION_T":"Library"},
 {"OBJECTID":312, "LOCATION":"396 CLINTON STREET", "LAT":40.6832135153, "LON":-73.9980190603, "LOCATION_T":"Library"},
 {"OBJECTID":313, "LOCATION":"25-55 FRANCIS LEWIS BOULEVARD", "LAT":40.7737521088, "LON":-73.796343186, "LOCATION_T":"Library"},
 {"OBJECTID":314, "LOCATION":"100-01 NORTHERN BOULEVARD", "LAT":40.7577118988, "LON":-73.8682002957, "LOCATION_T":"Library"},
 {"OBJECTID":315, "LOCATION":"151-10 14 ROAD", "LAT":40.7885314443, "LON":-73.8107165591, "LOCATION_T":"Library"},
 {"OBJECTID":316, "LOCATION":"12143 FLATLANDS AVENUE", "LAT":40.6532640727, "LON":-73.8859090476, "LOCATION_T":"Library"},
 {"OBJECTID":317, "LOCATION":"85-12 MAIN STREET", "LAT":40.7100345578, "LON":-73.8194531201, "LOCATION_T":"Library"},
 {"OBJECTID":318, "LOCATION":"1866 WASHINGTON AVENUE", "LAT":40.8460423249, "LON":-73.8983402556, "LOCATION_T":"Library"},
 {"OBJECTID":319, "LOCATION":"135 SECOND AVENUE", "LAT":40.7289209029, "LON":-73.9877837339, "LOCATION_T":"Library"},
 {"OBJECTID":320, "LOCATION":"535 WEST 179 STREET", "LAT":40.8478700412, "LON":-73.9338659131, "LOCATION_T":"Library"},
 {"OBJECTID":321, "LOCATION":"160 EAST 5 STREET", "LAT":40.6487169711, "LON":-73.9767572777, "LOCATION_T":"Library"},
 {"OBJECTID":322, "LOCATION":"93 ST EDWARDS STREET", "LAT":40.6944896983, "LON":-73.9777326329, "LOCATION_T":"Library"},
 {"OBJECTID":323, "LOCATION":"975 EAST 16 STREET", "LAT":40.6258933072, "LON":-73.9603144928, "LOCATION_T":"Library"},
 {"OBJECTID":324, "LOCATION":"40 LINCOLN CENTER PLAZA", "LAT":40.7735069912, "LON":-73.9845468452, "LOCATION_T":"Library"},
 {"OBJECTID":325, "LOCATION":"203 ARLINGTON AVENUE", "LAT":40.680687107, "LON":-73.887239509, "LOCATION_T":"Library"},
 {"OBJECTID":326, "LOCATION":"220-20 LINDEN BOULEVARD", "LAT":40.6947772916, "LON":-73.7396425691, "LOCATION_T":"Library"},
 {"OBJECTID":327, "LOCATION":"303 AVENUE X", "LAT":40.59054439, "LON":-73.9718084463, "LOCATION_T":"Library"},
 {"OBJECTID":328, "LOCATION":"29-42 UNION STREET", "LAT":40.7711255247, "LON":-73.8269158096, "LOCATION_T":"Library"},
 {"OBJECTID":329, "LOCATION":"41-17 MAIN STREET", "LAT":40.7577740683, "LON":-73.8288846851, "LOCATION_T":"Library"},
 {"OBJECTID":330, "LOCATION":"79-50 BELL BOULEVARD", "LAT":40.7344862637, "LON":-73.7556816711, "LOCATION_T":"Library"},
 {"OBJECTID":331, "LOCATION":"560 LEXINGTON AVENUE", "LAT":40.7568571776, "LON":-73.9726324717, "LOCATION_T":"Library"},
 {"OBJECTID":332, "LOCATION":"158-21 JEWEL AVENUE", "LAT":40.7330342416, "LON":-73.8098798843, "LOCATION_T":"Library"},
 {"OBJECTID":333, "LOCATION":"650 WEST 235 STREET", "LAT":40.8862733773, "LON":-73.9146700146, "LOCATION_T":"Library"},
 {"OBJECTID":334, "LOCATION":"134-26 225 STREET", "LAT":40.676952728, "LON":-73.7456735613, "LOCATION_T":"Library"},
 {"OBJECTID":335, "LOCATION":"617 DEKALB AVENUE", "LAT":40.6916230873, "LON":-73.951283498, "LOCATION_T":"Library"},
 {"OBJECTID":336, "LOCATION":"193-20 HORACE HARDING EXPRESSWAY", "LAT":40.7415435746, "LON":-73.7822740472, "LOCATION_T":"Library"},
 {"OBJECTID":337, "LOCATION":"16 BRIGHTON 1 ROAD", "LAT":40.576107747, "LON":-73.9667748762, "LOCATION_T":"Library"},
 {"OBJECTID":338, "LOCATION":"196-36 NORTHERN BOULEVARD", "LAT":40.7575456796, "LON":-73.7843029637, "LOCATION_T":"Library"},
 {"OBJECTID":339, "LOCATION":"1255 EAST 233 STREET", "LAT":40.8888948958, "LON":-73.8408371279, "LOCATION_T":"Library"},
 {"OBJECTID":340, "LOCATION":"7223 RIDGE BOULEVARD", "LAT":40.6336257134, "LON":-74.0295383519, "LOCATION_T":"Library"},
 {"OBJECTID":341, "LOCATION":"280 CADMAN PLAZA WEST", "LAT":40.6956825552, "LON":-73.9913479881, "LOCATION_T":"Library"},
 {"OBJECTID":342, "LOCATION":"444 AMSTERDAM AVENUE", "LAT":40.7848346367, "LON":-73.9774521159, "LOCATION_T":"Library"},
 {"OBJECTID":343, "LOCATION":"21-45 31 STREET", "LAT":40.7768170122, "LON":-73.9094170178, "LOCATION_T":"Library"},
 {"OBJECTID":344, "LOCATION":"38-23 104 STREET", "LAT":40.7508940804, "LON":-73.861976844, "LOCATION_T":"Library"},
 {"OBJECTID":345, "LOCATION":"2521 GLEBE AVENUE", "LAT":40.8411050877, "LON":-73.8466216551, "LOCATION_T":"Library"},
 {"OBJECTID":346, "LOCATION":"4790 BROADWAY", "LAT":40.8657295413, "LON":-73.9258533096, "LOCATION_T":"Library"},
 {"OBJECTID":347, "LOCATION":"1265 43 STREET", "LAT":40.6388851668, "LON":-73.9890077838, "LOCATION_T":"Library"},
 {"OBJECTID":348, "LOCATION":"43-06 GREENPOINT AVENUE", "LAT":40.7408087817, "LON":-73.9216691603, "LOCATION_T":"Library"},
 {"OBJECTID":349, "LOCATION":"69-70 GRAND AVENUE", "LAT":40.7269953701, "LON":-73.8931045649, "LOCATION_T":"Library"},
 {"OBJECTID":350, "LOCATION":"518 WEST 125 STREET", "LAT":40.8137734314, "LON":-73.9570639052, "LOCATION_T":"Library"},
 {"OBJECTID":351, "LOCATION":"127 AMSTERDAM AVENUE", "LAT":40.7742029054, "LON":-73.9844546501, "LOCATION_T":"Library"},
 {"OBJECTID":352, "LOCATION":"104 WEST 136 STREET", "LAT":40.8148204092, "LON":-73.941197673, "LOCATION_T":"Library"},
 {"OBJECTID":353, "LOCATION":"95-06 ASTORIA BOULEVARD", "LAT":40.7624221297, "LON":-73.87386663, "LOCATION_T":"Library"},
 {"OBJECTID":354, "LOCATION":"250-06 HILLSIDE AVENUE", "LAT":40.7351569903, "LON":-73.7170989707, "LOCATION_T":"Library"},
 {"OBJECTID":355, "LOCATION":"61 GLENMORE AVENUE", "LAT":40.6715266559, "LON":-73.9086034329, "LOCATION_T":"Library"},
 {"OBJECTID":356, "LOCATION":"560 NEW YORK AVENUE", "LAT":40.6611893077, "LON":-73.9481022991, "LOCATION_T":"Library"},
 {"OBJECTID":357, "LOCATION":"1044 EASTERN PARKWAY", "LAT":40.6684865101, "LON":-73.9336508496, "LOCATION_T":"Library"},
 {"OBJECTID":358, "LOCATION":"18-36 BELL BOULEVARD", "LAT":40.7825312039, "LON":-73.777008814, "LOCATION_T":"Library"},
 {"OBJECTID":359, "LOCATION":"328 EAST 67 STREET", "LAT":40.7649150063, "LON":-73.9595499458, "LOCATION_T":"Library"},
 {"OBJECTID":360, "LOCATION":"222 EAST 79 STREET", "LAT":40.7736058206, "LON":-73.9564040689, "LOCATION_T":"Library"},
 {"OBJECTID":361, "LOCATION":"92-25 ROCKAWAY BEACH BOULEVARD", "LAT":40.5858394078, "LON":-73.8160616201, "LOCATION_T":"Library"},
 {"OBJECTID":362, "LOCATION":"830 HUGUENOT AVENUE", "LAT":40.5340582999, "LON":-74.193236856, "LOCATION_T":"Library"},
 {"OBJECTID":363, "LOCATION":"2602 BATH AVENUE", "LAT":40.5926531297, "LON":-73.9886820957, "LOCATION_T":"Library"},
 {"OBJECTID":364, "LOCATION":"202-05 HILLSIDE AVENUE", "LAT":40.7201684296, "LON":-73.7623041123, "LOCATION_T":"Library"},
 {"OBJECTID":365, "LOCATION":"2065 FLATBUSH AVENUE", "LAT":40.6197681963, "LON":-73.9332132562, "LOCATION_T":"Library"},
 {"OBJECTID":366, "LOCATION":"410 DITMAS AVENUE", "LAT":40.6356942225, "LON":-73.9745947088, "LOCATION_T":"Library"},
 {"OBJECTID":367, "LOCATION":"2550 VICTORY BOULEVARD", "LAT":40.6095774994, "LON":-74.1485024503, "LOCATION_T":"Library"},
 {"OBJECTID":368, "LOCATION":"57-04 MARATHON PARKWAY", "LAT":40.7592451348, "LON":-73.7318266816, "LOCATION_T":"Library"},
 {"OBJECTID":369, "LOCATION":"117-11 SUTPHIN BOULEVARD", "LAT":40.6803113116, "LON":-73.7916786111, "LOCATION_T":"Library"},
 {"OBJECTID":370, "LOCATION":"78-60 73 PLACE", "LAT":40.7025766648, "LON":-73.8757971089, "LOCATION_T":"Library"},
 {"OBJECTID":371, "LOCATION":"240 DIVISION AVENUE", "LAT":40.7069304247, "LON":-73.9575546134, "LOCATION_T":"Library"},
 {"OBJECTID":372, "LOCATION":"2115 OCEAN AVENUE", "LAT":40.6102566673, "LON":-73.9531058487, "LOCATION_T":"Library"},
 {"OBJECTID":373, "LOCATION":"103-34 LEFFERTS BOULEVARD", "LAT":40.6869072882, "LON":-73.8248296985, "LOCATION_T":"Library"},
 {"OBJECTID":374, "LOCATION":"431 6 AVENUE", "LAT":40.6682166933, "LON":-73.9834274329, "LOCATION_T":"Library"},
 {"OBJECTID":375, "LOCATION":"1215 MORRISON AVENUE", "LAT":40.8299928753, "LON":-73.8750206002, "LOCATION_T":"Library"},
 {"OBJECTID":376, "LOCATION":"35-32 21 STREET", "LAT":40.7606431176, "LON":-73.9364719875, "LOCATION_T":"Library"},
 {"OBJECTID":377, "LOCATION":"54-22 SKILLMAN AVENUE", "LAT":40.745341713, "LON":-73.9097937387, "LOCATION_T":"Library"},
 {"OBJECTID":378, "LOCATION":"187-05 UNION TURNPIKE", "LAT":40.7292529463, "LON":-73.7819089166, "LOCATION_T":"Library"},
 {"OBJECTID":379, "LOCATION":"340 BUSHWICK AVENUE", "LAT":40.7045590639, "LON":-73.9396184214, "LOCATION_T":"Library"},
 {"OBJECTID":380, "LOCATION":"761 EAST 160 STREET", "LAT":40.8206415647, "LON":-73.9046288601, "LOCATION_T":"Library"},
 {"OBJECTID":381, "LOCATION":"92-06 156 AVENUE", "LAT":40.6638044606, "LON":-73.8417968638, "LOCATION_T":"Library"},
 {"OBJECTID":382, "LOCATION":"188 MADISON AVENUE", "LAT":40.7481246964, "LON":-73.9830630999, "LOCATION_T":"Library"},
 {"OBJECTID":383, "LOCATION":"524 MAIN STREET", "LAT":40.7612533724, "LON":-73.9501658898, "LOCATION_T":"Library"},
 {"OBJECTID":384, "LOCATION":"947 CASTLE HILL AVENUE", "LAT":40.8266092254, "LON":-73.8501814579, "LOCATION_T":"Library"},
 {"OBJECTID":385, "LOCATION":"3025 CROSS BRONX EXPRESSWAY", "LAT":40.8229035714, "LON":-73.8190936365, "LOCATION_T":"Library"},
 {"OBJECTID":386, "LOCATION":"169-09 137 AVENUE", "LAT":40.6728752044, "LON":-73.7705902161, "LOCATION_T":"Library"},
 {"OBJECTID":387, "LOCATION":"20-12 MADISON STREET", "LAT":40.7051723129, "LON":-73.902572375, "LOCATION_T":"Library"},
 {"OBJECTID":388, "LOCATION":"1637 CENTRAL AVENUE", "LAT":40.604772113, "LON":-73.7520918927, "LOCATION_T":"Library"},
 {"OBJECTID":389, "LOCATION":"81 DEVOE STREET", "LAT":40.713644888, "LON":-73.9479357128, "LOCATION_T":"Library"},
 {"OBJECTID":390, "LOCATION":"108-41 GUY R BREWER BOULEVARD", "LAT":40.6955401466, "LON":-73.7902273917, "LOCATION_T":"Library"},
 {"OBJECTID":391, "LOCATION":"5902 23 AVENUE", "LAT":40.6159160785, "LON":-73.9760404894, "LOCATION_T":"Library"},
 {"OBJECTID":392, "LOCATION":"9424 FOURTH AVENUE", "LAT":40.6163731106, "LON":-74.0313694054, "LOCATION_T":"Library"},
 {"OBJECTID":393, "LOCATION":"16-26 CROSS BAY BOULEVARD", "LAT":40.6007321052, "LON":-73.8200526582, "LOCATION_T":"Library"},
 {"OBJECTID":394, "LOCATION":"200 CLARKE AVENUE", "LAT":40.5665301462, "LON":-74.1385338765, "LOCATION_T":"Library"},
 {"OBJECTID":395, "LOCATION":"5 AVENUE & 42 STREET", "LAT":40.7531840458, "LON":-73.9821581041, "LOCATION_T":"Library"},
 {"OBJECTID":396, "LOCATION":"66 LEROY STREET", "LAT":40.7299829146, "LON":-74.0053310145, "LOCATION_T":"Library"},
 {"OBJECTID":397, "LOCATION":"128-16 ROCKAWAY BOULEVARD", "LAT":40.6747769261, "LON":-73.8092618174, "LOCATION_T":"Library"},
 {"OBJECTID":398, "LOCATION":"98-27 METROPOLITAN AVENUE", "LAT":40.7111856291, "LON":-73.8536727785, "LOCATION_T":"Library"},
 {"OBJECTID":399, "LOCATION":"425 AVENUE OF AMERICAS", "LAT":40.7346055255, "LON":-73.9991692843, "LOCATION_T":"Library"},
 {"OBJECTID":400, "LOCATION":"92-24 ROCKAWAY BOULEVARD", "LAT":40.6808618482, "LON":-73.8464887284, "LOCATION_T":"Library"},
 {"OBJECTID":401, "LOCATION":"581 MOTHER GASTON BOULEVARD", "LAT":40.664453793, "LON":-73.9052223115, "LOCATION_T":"Library"},
 {"OBJECTID":402, "LOCATION":"1305 CORTELYOU ROAD", "LAT":40.6408035472, "LON":-73.9659650781, "LOCATION_T":"Library"},
 {"OBJECTID":403, "LOCATION":"118-14 HILLSIDE AVENUE", "LAT":40.700765268, "LON":-73.8316254169, "LOCATION_T":"Library"},
 {"OBJECTID":404, "LOCATION":"228 EAST 23 STREET", "LAT":40.7380871204, "LON":-73.9820488896, "LOCATION_T":"Library"},
 {"OBJECTID":405, "LOCATION":"192 EAST BROADWAY", "LAT":40.7144564597, "LON":-73.9885372705, "LOCATION_T":"Library"},
 {"OBJECTID":406, "LOCATION":"361 LEWIS AVENUE", "LAT":40.683004902, "LON":-73.9348054703, "LOCATION_T":"Library"},
 {"OBJECTID":407, "LOCATION":"515 MALCOLM X BOULEVARD", "LAT":40.8146886279, "LON":-73.9409529891, "LOCATION_T":"Library"},
 {"OBJECTID":408, "LOCATION":"155 EAST 173 STREET", "LAT":40.8440019118, "LON":-73.9100871445, "LOCATION_T":"Library"},
 {"OBJECTID":409, "LOCATION":"850 EAST 59 STREET", "LAT":40.632636993, "LON":-73.9199848808, "LOCATION_T":"Library"},
 {"OBJECTID":410, "LOCATION":"1385 EAST GUNHILL ROAD", "LAT":40.870139703, "LON":-73.8450642753, "LOCATION_T":"Library"},
 {"OBJECTID":411, "LOCATION":"309 NEW DORP LANE", "LAT":40.5719318484, "LON":-74.1119581475, "LOCATION_T":"Library"},
 {"OBJECTID":412, "LOCATION":"4100 LOWERRE PLACE", "LAT":40.8910850654, "LON":-73.8595812441, "LOCATION_T":"Library"},
 {"OBJECTID":413, "LOCATION":"2385 RALPH AVENUE", "LAT":40.619868421, "LON":-73.9170212071, "LOCATION_T":"Library"},
 {"OBJECTID":414, "LOCATION":"976 CASTLETON AVENUE", "LAT":40.6345089423, "LON":-74.1148218734, "LOCATION_T":"Library"},
 {"OBJECTID":415, "LOCATION":"446 THIRD AVENUE", "LAT":40.7438226298, "LON":-73.9799076544, "LOCATION_T":"Library"},
 {"OBJECTID":416, "LOCATION":"40 WEST 20 STREET", "LAT":40.7404654556, "LON":-73.9933569112, "LOCATION_T":"Library"},
 {"OBJECTID":417, "LOCATION":"118 EAMES PLACE", "LAT":40.8690393929, "LON":-73.9011937916, "LOCATION_T":"Library"},
 {"OBJECTID":418, "LOCATION":"40-20 BROADWAY", "LAT":40.758529267, "LON":-73.9186233204, "LOCATION_T":"Library"},
 {"OBJECTID":419, "LOCATION":"91-14 MERRICK BOULEVARD", "LAT":40.7059620938, "LON":-73.7944075307, "LOCATION_T":"Library"},
 {"OBJECTID":420, "LOCATION":"56 GIFFORDS LANE", "LAT":40.5524232628, "LON":-74.1511116431, "LOCATION_T":"Library"},
 {"OBJECTID":421, "LOCATION":"9 MURRAY STREET", "LAT":40.7136065153, "LON":-74.0078616724, "LOCATION_T":"Library"},
 {"OBJECTID":422, "LOCATION":"415 EAST HOUSTON STREET", "LAT":40.7193972838, "LON":-73.9796055959, "LOCATION_T":"Library"},
 {"OBJECTID":423, "LOCATION":"877 SOUTHERN BOULEVARD", "LAT":40.8186874033, "LON":-73.8941356433, "LOCATION_T":"Library"},
 {"OBJECTID":424, "LOCATION":"2740 BARNES AVENUE", "LAT":40.866804429, "LON":-73.8632224848, "LOCATION_T":"Library"},
 {"OBJECTID":425, "LOCATION":"214-20 NORTHERN BOULEVARD", "LAT":40.7601255812, "LON":-73.7683619807, "LOCATION_T":"Library"},
 {"OBJECTID":426, "LOCATION":"116-15 ROCKAWAY BEACH BOULEVARD", "LAT":40.5793908722, "LON":-73.8377356028, "LOCATION_T":"Library"},
 {"OBJECTID":427, "LOCATION":"1901 MERMAID AVENUE", "LAT":40.5766377761, "LON":-73.9860619926, "LOCATION_T":"Library"},
 {"OBJECTID":428, "LOCATION":"2650 ADAM CLAYTON POWELL JR BOULEVARD", "LAT":40.8265670801, "LON":-73.9359395884, "LOCATION_T":"Library"},
 {"OBJECTID":429, "LOCATION":"37-44 21 STREET", "LAT":40.757803428, "LON":-73.939309302, "LOCATION_T":"Library"},
 {"OBJECTID":430, "LOCATION":"310 East Kingsbridge Road", "LAT":40.8629806052, "LON":-73.8945028865, "LOCATION_T":"Library"},
 {"OBJECTID":431, "LOCATION":"985 MORRIS PARK AVENUE", "LAT":40.8480291101, "LON":-73.8569578538, "LOCATION_T":"Library"},
 {"OBJECTID":432, "LOCATION":"10 Jersey Street", "LAT":40.7240963609, "LON":-73.995698993, "LOCATION_T":"Library"},
 {"OBJECTID":433, "LOCATION":"135 EAST 46 STREET", "LAT":40.7540678756, "LON":-73.9735677168, "LOCATION_T":"Library"},
 {"OBJECTID":434, "LOCATION":"1-17 Gouverneur Lane, New York, NY 10005, USA", "LAT":40.7041015998, "LON":-74.0076981, "LOCATION_T":"Outdoor"},
 {"OBJECTID":435, "LOCATION":"42 South Street, New York, NY 10005, USA", "LAT":40.7036018001, "LON":-74.0074996996, "LOCATION_T":"Outdoor"},
 {"OBJECTID":436, "LOCATION":"29-43 Old Slip, New York, NY 10004, USA", "LAT":40.7033997, "LON":-74.0084000005, "LOCATION_T":"Outdoor"},
 {"OBJECTID":437, "LOCATION":"13 Hanover Square, New York, NY 10004, USA", "LAT":40.7041016002, "LON":-74.0092009996, "LOCATION_T":"Outdoor"},
 {"OBJECTID":438, "LOCATION":"55 Water Street, New York, NY 10041, USA", "LAT":40.7033004998, "LON":-74.0093002002, "LOCATION_T":"Outdoor"},
 {"OBJECTID":439, "LOCATION":"55 Water Street, New York, NY 10041, USA", "LAT":40.7028998998, "LON":-74.0095978002, "LOCATION_T":"Outdoor"},
 {"OBJECTID":440, "LOCATION":"55 Water Street, New York, NY 10041, USA", "LAT":40.7028008004, "LON":-74.0094985998, "LOCATION_T":"Outdoor"},
 {"OBJECTID":441, "LOCATION":"23-39 Water Street, New York, NY 10004, USA", "LAT":40.7030983001, "LON":-74.0106963996, "LOCATION_T":"Outdoor"},
 {"OBJECTID":442, "LOCATION":"77 Whitehall Street, New York, NY 10004, USA", "LAT":40.7023010001, "LON":-74.0126038001, "LOCATION_T":"Outdoor"},
 {"OBJECTID":443, "LOCATION":"83-85 Whitehall Street, New York, NY 10004, USA", "LAT":40.7019005001, "LON":-74.0124969005, "LOCATION_T":"Outdoor"},
 {"OBJECTID":444, "LOCATION":"Downtown Manhattan Heliport, 6 East River Piers, New York, USA", "LAT":40.7015990998, "LON":-74.0093001995, "LOCATION_T":"Outdoor"},
 {"OBJECTID":445, "LOCATION":"11-27 Canyon of Heroes, New York, NY 10004, USA", "LAT":40.7051009996, "LON":-74.0139998997, "LOCATION_T":"Outdoor"},
 {"OBJECTID":446, "LOCATION":"10-30 Broadway, New York, NY 10004, USA", "LAT":40.7051009999, "LON":-74.0139008001, "LOCATION_T":"Outdoor"},
 {"OBJECTID":447, "LOCATION":"2-8 Coenties Alley, New York, NY 10004, USA", "LAT":40.7041015999, "LON":-74.0105971997, "LOCATION_T":"Outdoor"},
 {"OBJECTID":448, "LOCATION":"79 Pearl Street, New York, NY 10004, USA", "LAT":40.7038994, "LON":-74.0103988997, "LOCATION_T":"Outdoor"},
 {"OBJECTID":449, "LOCATION":"95 Pearl Street, New York, NY 10004, USA", "LAT":40.7043990997, "LON":-74.0101012997, "LOCATION_T":"Outdoor"},
 {"OBJECTID":450, "LOCATION":"54 Stone Street, New York, NY 10004, USA", "LAT":40.7042998996, "LON":-74.0102005003, "LOCATION_T":"Outdoor"},
 {"OBJECTID":451, "LOCATION":"74 Broadway, New York, NY 10006, USA", "LAT":40.7079009996, "LON":-74.0121993994, "LOCATION_T":"Outdoor"},
 {"OBJECTID":452, "LOCATION":"111 Greenwich Street, New York, NY 10006, USA", "LAT":40.7086982997, "LON":-74.0130997003, "LOCATION_T":"Outdoor"},
 {"OBJECTID":453, "LOCATION":"250 Greenwich Street, New York, NY 10007, USA", "LAT":40.7130013004, "LON":-74.0118027004, "LOCATION_T":"Outdoor"},
 {"OBJECTID":454, "LOCATION":"250 Greenwich Street, New York, NY 10007, USA", "LAT":40.7132988003, "LON":-74.0118026998, "LOCATION_T":"Outdoor"},
 {"OBJECTID":455, "LOCATION":"75 Broadway, New York, NY 10006, USA", "LAT":40.7081985002, "LON":-74.0121002005, "LOCATION_T":"Outdoor"},
 {"OBJECTID":456, "LOCATION":"75 Broadway, New York, NY 10006, USA", "LAT":40.7080993998, "LON":-74.0119018998, "LOCATION_T":"Outdoor"},
 {"OBJECTID":457, "LOCATION":"74 Broadway, New York, NY 10006, USA", "LAT":40.7080001998, "LON":-74.0118027001, "LOCATION_T":"Outdoor"},
 {"OBJECTID":458, "LOCATION":"Stonehenge building main lobby", "LAT":40.618237, "LON":-74.107213, "LOCATION_T":"Indoor"},
 {"OBJECTID":459, "LOCATION":"North Hallway Outside the Office", "LAT":40.618237, "LON":-74.107213, "LOCATION_T":"Indoor"},
 {"OBJECTID":460, "LOCATION":"South Hallway Outside the Office", "LAT":40.618237, "LON":-74.107213, "LOCATION_T":"Indoor"},
 {"OBJECTID":461, "LOCATION":"Open Seating", "LAT":40.677193, "LON":-74.008723, "LOCATION_T":"Outdoor"},
 {"OBJECTID":462, "LOCATION":"3e 118th st_HCZ", "LAT":40.801846, "LON":-73.945137, "LOCATION_T":"Outdoor"},
 {"OBJECTID":463, "LOCATION":"35E125 unit 2", "LAT":40.805974, "LON":-73.941244, "LOCATION_T":"Outdoor"},
 {"OBJECTID":464, "LOCATION":"35E125 unit 1", "LAT":40.805971, "LON":-73.940566, "LOCATION_T":"Outdoor"},
 {"OBJECTID":465, "LOCATION":"2491 Frederick Douglas Blvd._HCZ", "LAT":40.815347, "LON":-73.947576, "LOCATION_T":"Outdoor"},
 {"OBJECTID":466, "LOCATION":"245W129th", "LAT":40.811568, "LON":-73.946537, "LOCATION_T":"Outdoor"},
 {"OBJECTID":467, "LOCATION":"23 West 124th Street_HCZ", "LAT":40.806297, "LON":-73.943912, "LOCATION_T":"Outdoor"},
 {"OBJECTID":468, "LOCATION":"2374 Frederick Douglas blvd", "LAT":40.811684, "LON":-73.950042, "LOCATION_T":"Outdoor"},
 {"OBJECTID":469, "LOCATION":"2321ACP", "LAT":40.815936, "LON":-73.942971, "LOCATION_T":"Outdoor"},
 {"OBJECTID":470, "LOCATION":"2201 5th Ave_NYCHA", "LAT":40.812181, "LON":-73.937834, "LOCATION_T":"Outdoor"},
 {"OBJECTID":471, "LOCATION":"2117 Frederick Douglas Blvd._TALH", "LAT":40.80349, "LON":-73.956094, "LOCATION_T":"Outdoor"},
 {"OBJECTID":472, "LOCATION":"211 129Th Street_HCZ", "LAT":40.812186, "LON":-73.947955, "LOCATION_T":"Outdoor"},
 {"OBJECTID":473, "LOCATION":"210 west 131st (new)", "LAT":40.812598, "LON":-73.946296, "LOCATION_T":"Outdoor"},
 {"OBJECTID":474, "LOCATION":"207 Lenox South", "LAT":40.805058, "LON":-73.947815, "LOCATION_T":"Outdoor"},
 {"OBJECTID":475, "LOCATION":"207 Lenox North", "LAT":40.805228, "LON":-73.947675, "LOCATION_T":"Outdoor"},
 {"OBJECTID":476, "LOCATION":"203 West 117 St. St. Nicholas Side _NYCHA", "LAT":40.804279, "LON":-73.952533, "LOCATION_T":"Outdoor"},
 {"OBJECTID":477, "LOCATION":"2037 7Th Avenue_HCZ", "LAT":40.806858, "LON":-73.949726, "LOCATION_T":"Outdoor"},
 {"OBJECTID":478, "LOCATION":"1851 Adam Clayton Powell Jr Blvd_THAL", "LAT":40.801137, "LON":-73.953778, "LOCATION_T":"Outdoor"},
 {"OBJECTID":479, "LOCATION":"182 St. Nicholas Street_NYCHA", "LAT":40.806016, "LON":-73.9524, "LOCATION_T":"Outdoor"},
 {"OBJECTID":480, "LOCATION":"17 East 124th Street_NYCHA R", "LAT":40.805429, "LON":-73.942537, "LOCATION_T":"Outdoor"},
 {"OBJECTID":481, "LOCATION":"1780 Madison Ave_NYCHA", "LAT":40.800479, "LON":-73.944696, "LOCATION_T":"Outdoor"},
 {"OBJECTID":482, "LOCATION":"1735 Madison Ave_NYCHA", "LAT":40.798728, "LON":-73.945598, "LOCATION_T":"Outdoor"},
 {"OBJECTID":483, "LOCATION":"1330 5th Avenue_TAHL", "LAT":40.797893, "LON":-73.948786, "LOCATION_T":"Outdoor"},
 {"OBJECTID":484, "LOCATION":"124w114", "LAT":40.801527, "LON":-73.952822, "LOCATION_T":"Outdoor"},
 {"OBJECTID":485, "LOCATION":"pole 29 - 113SS2EACB", "LAT":40.805393, "LON":-73.953661, "LOCATION_T":"Outdoor"},
 {"OBJECTID":486, "LOCATION":"pole 33: 8avSEC113", "LAT":40.802337, "LON":-73.956706, "LOCATION_T":"Outdoor"},
 {"OBJECTID":487, "LOCATION":"Pole 71 - 131NS1E5av", "LAT":40.809398, "LON":-73.939561, "LOCATION_T":"Outdoor"},
 {"OBJECTID":488, "LOCATION":"pole 47 - 124SS2E8", "LAT":40.808843, "LON":-73.950495, "LOCATION_T":"Outdoor"},
 {"OBJECTID":489, "LOCATION":"pole 25: 120CStNk", "LAT":40.806412, "LON":-73.952662, "LOCATION_T":"Outdoor"},
 {"OBJECTID":490, "LOCATION":"pole 26: 120NEC7av", "LAT":40.805584, "LON":-73.950536, "LOCATION_T":"Outdoor"},
 {"OBJECTID":491, "LOCATION":"pole 27n - 135NWC5av", "LAT":40.81277, "LON":-73.93765, "LOCATION_T":"Outdoor"},
 {"OBJECTID":492, "LOCATION":"pole 30: 8avSEC119", "LAT":40.80623, "LON":-73.953922, "LOCATION_T":"Outdoor"},
 {"OBJECTID":493, "LOCATION":"pole 31: 8avNEC118", "LAT":40.805791, "LON":-73.954438, "LOCATION_T":"Outdoor"},
 {"OBJECTID":494, "LOCATION":"Pole 32: 8avSEC117", "LAT":40.804269, "LON":-73.955388, "LOCATION_T":"Outdoor"},
 {"OBJECTID":495, "LOCATION":"pole 34: 8avNWC111", "LAT":40.801294, "LON":-73.957722, "LOCATION_T":"Outdoor"},
 {"OBJECTID":496, "LOCATION":"pole 35n MadSWC121", "LAT":40.803087, "LON":-73.942356, "LOCATION_T":"Outdoor"},
 {"OBJECTID":497, "LOCATION":"pole 36 - MavSWC123", "LAT":40.804242, "LON":-73.94178, "LOCATION_T":"Outdoor"},
 {"OBJECTID":498, "LOCATION":"pole 37 - 124SWCMad", "LAT":40.804958, "LON":-73.941374, "LOCATION_T":"Outdoor"},
 {"OBJECTID":499, "LOCATION":"pole 38 - 124SEC5", "LAT":40.805624, "LON":-73.942812, "LOCATION_T":"Outdoor"},
 {"OBJECTID":500, "LOCATION":"pole 39: 124SS2E5av", "LAT":40.806569, "LON":-73.944977, "LOCATION_T":"Outdoor"},
 {"OBJECTID":501, "LOCATION":"34 St - Hudson Yards (7)", "LAT":40.755839, "LON":-74.001961, "LOCATION_T":"Subway Station"},
 {"OBJECTID":502, "LOCATION":"86 St (Q)", "LAT":40.777925, "LON":-73.951753, "LOCATION_T":"Subway Station"},
 {"OBJECTID":503, "LOCATION":"72 St (Q)", "LAT":40.768775, "LON":-73.958386, "LOCATION_T":"Subway Station"},
 {"OBJECTID":504, "LOCATION":"Roosevelt Island (F)", "LAT":40.759145, "LON":-73.95326, "LOCATION_T":"Subway Station"},
 {"OBJECTID":505, "LOCATION":"Lexington Av-63 St (F)", "LAT":40.76463, "LON":-73.966115, "LOCATION_T":"Subway Station"},
 {"OBJECTID":506, "LOCATION":"96 St (Q)", "LAT":40.784267, "LON":-73.947114, "LOCATION_T":"Subway Station"},
 {"OBJECTID":521, "LOCATION":"300 Jay Street", "LAT":40.696027, "LON":-73.988456, "LOCATION_T":"Outdoor"},
 {"OBJECTID":522, "LOCATION":"300 Jay Street", "LAT":40.695921, "LON":-73.988118, "LOCATION_T":"Outdoor"},
 {"OBJECTID":523, "LOCATION":"300 Jay Street", "LAT":40.695902, "LON":-73.987394, "LOCATION_T":"Outdoor"},
 {"OBJECTID":524, "LOCATION":"300 Jay Street", "LAT":40.69511, "LON":-73.988482, "LOCATION_T":"Outdoor"},
 {"OBJECTID":525, "LOCATION":"300 Jay Street", "LAT":40.69511, "LON":-73.988482, "LOCATION_T":"Outdoor"},
 {"OBJECTID":526, "LOCATION":"300 Jay Street", "LAT":40.695902, "LON":-73.987394, "LOCATION_T":"Outdoor"},
 {"OBJECTID":527, "LOCATION":"300 Jay Street", "LAT":40.696027, "LON":-73.988456, "LOCATION_T":"Outdoor"},
 {"OBJECTID":528, "LOCATION":"300 Jay Street", "LAT":40.695038, "LON":-73.987331, "LOCATION_T":"Outdoor"},
 {"OBJECTID":539, "LOCATION":"300 Jay Street", "LAT":40.695107, "LON":-73.988105, "LOCATION_T":"Outdoor"},
 {"OBJECTID":540, "LOCATION":"300 Jay Street", "LAT":40.695088, "LON":-73.987671, "LOCATION_T":"Outdoor"},
 {"OBJECTID":541, "LOCATION":"177 Myrtle Ave", "LAT":40.693701, "LON":-73.982195, "LOCATION_T":"Outdoor"},
 {"OBJECTID":542, "LOCATION":"177 Myrtle Ave", "LAT":40.693862, "LON":-73.982906, "LOCATION_T":"Outdoor"},
 {"OBJECTID":543, "LOCATION":"177 Myrtle Ave", "LAT":40.693727, "LON":-73.982909, "LOCATION_T":"Outdoor"},
 {"OBJECTID":544, "LOCATION":"177 Myrtle Ave", "LAT":40.693859, "LON":-73.982476, "LOCATION_T":"Outdoor"},
 {"OBJECTID":545, "LOCATION":"177 Myrtle Ave", "LAT":40.693833, "LON":-73.982192, "LOCATION_T":"Outdoor"},
 {"OBJECTID":546, "LOCATION":"31 Fleet Walk", "LAT":40.694893, "LON":-73.98118, "LOCATION_T":"Outdoor"},
 {"OBJECTID":547, "LOCATION":"62 Fleet Walk", "LAT":40.694555, "LON":-73.981679, "LOCATION_T":"Outdoor"},
 {"OBJECTID":548, "LOCATION":"95 Navy Walk", "LAT":40.695317, "LON":-73.981155, "LOCATION_T":"Outdoor"},
 {"OBJECTID":549, "LOCATION":"5 Fleet Walk", "LAT":40.695544, "LON":-73.981648, "LOCATION_T":"Outdoor"},
 {"OBJECTID":550, "LOCATION":"9 Monument Walk", "LAT":40.69567, "LON":-73.979752, "LOCATION_T":"Outdoor"},
 {"OBJECTID":551, "LOCATION":"50 Monument Walk", "LAT":40.695295, "LON":-73.980103, "LOCATION_T":"Outdoor"},
 {"OBJECTID":552, "LOCATION":"Park Perimeter", "LAT":40.672583, "LON":-74.005544, "LOCATION_T":"Outdoor TWC Aerial"},
 {"OBJECTID":553, "LOCATION":"Park Perimeter", "LAT":40.673349, "LON":-74.008235, "LOCATION_T":"Outdoor TWC Aerial"},
 {"OBJECTID":554, "LOCATION":"Park Perimeter", "LAT":40.673031, "LON":-74.00485, "LOCATION_T":"Outdoor TWC Aerial"},
 {"OBJECTID":555, "LOCATION":"Park Perimeter", "LAT":40.672969, "LON":-74.006915, "LOCATION_T":"Outdoor TWC Aerial"},
 {"OBJECTID":556, "LOCATION":"Park Perimeter", "LAT":40.672214, "LON":-74.004145, "LOCATION_T":"Outdoor TWC Aerial"},
 {"OBJECTID":557, "LOCATION":"Park Perimeter", "LAT":40.671167, "LON":-74.003688, "LOCATION_T":"Outdoor TWC Aerial"},
 {"OBJECTID":558, "LOCATION":"Lobby", "LAT":40.672356, "LON":-74.004046, "LOCATION_T":"Indoor"},
 {"OBJECTID":559, "LOCATION":"Game Room", "LAT":40.672413, "LON":-74.004303, "LOCATION_T":"Indoor"},
 {"OBJECTID":560, "LOCATION":"Basketball Court", "LAT":40.672289, "LON":-74.003744, "LOCATION_T":"Indoor"},
 {"OBJECTID":561, "LOCATION":"Weight Room", "LAT":40.672515, "LON":-74.004648, "LOCATION_T":"Indoor"},
 {"OBJECTID":562, "LOCATION":"Computer Room", "LAT":40.672413, "LON":-74.004303, "LOCATION_T":"Indoor"},
 {"OBJECTID":563, "LOCATION":"W 66th Street", "LAT":40.773542, "LON":-73.981774, "LOCATION_T":"Outdoor"},
 {"OBJECTID":564, "LOCATION":"Beach 73 - Comfort Station and Beach", "LAT":40.586556, "LON":-73.799894, "LOCATION_T":"Outdoor"},
 {"OBJECTID":565, "LOCATION":"Beach 73 - Comfort Station and Beach", "LAT":40.586541, "LON":-73.799973, "LOCATION_T":"Outdoor"},
 {"OBJECTID":566, "LOCATION":"Beach 86 - NW Concession Area", "LAT":40.584669, "LON":-73.811051, "LOCATION_T":"Outdoor"},
 {"OBJECTID":567, "LOCATION":"Beach 86 - SW Concession Area and Beach", "LAT":40.584551, "LON":-73.811003, "LOCATION_T":"Outdoor"},
 {"OBJECTID":568, "LOCATION":"Beach 86 - SE Concession Shade Structure and Beach", "LAT":40.584614, "LON":-73.810694, "LOCATION_T":"Outdoor"},
 {"OBJECTID":569, "LOCATION":"Beach 86- SE Concession Shade Structure and Picnic Area", "LAT":40.584727, "LON":-73.810683, "LOCATION_T":"Outdoor"},
 {"OBJECTID":570, "LOCATION":"Beach 97 - NW Rear of Concession", "LAT":40.58305, "LON":-73.817686, "LOCATION_T":"Outdoor"},
 {"OBJECTID":571, "LOCATION":"Beach 97 - SW Concession and Beach", "LAT":40.582914, "LON":-73.817877, "LOCATION_T":"Outdoor"},
 {"OBJECTID":572, "LOCATION":"Beach 97 - SW Concession and Beach", "LAT":40.582824, "LON":-73.817578, "LOCATION_T":"Outdoor"},
 {"OBJECTID":573, "LOCATION":"Beach 97 - SE Concessiont and Beach", "LAT":40.582957, "LON":-73.817185, "LOCATION_T":"Outdoor"},
 {"OBJECTID":574, "LOCATION":"Beach 97 - Comfort Station and Beach", "LAT":40.583099, "LON":-73.816689, "LOCATION_T":"Outdoor"},
 {"OBJECTID":575, "LOCATION":"Beach 108 -NW Rear of Caracus Bar", "LAT":40.580559, "LON":-73.826296, "LOCATION_T":"Outdoor"},
 {"OBJECTID":576, "LOCATION":"Beach 108 -SW Caracus Bar and Beach", "LAT":40.580467, "LON":-73.826272, "LOCATION_T":"Outdoor"},
 {"OBJECTID":577, "LOCATION":"Beach 108 -SE Caracus Bar and Beach", "LAT":40.580555, "LON":-73.825958, "LOCATION_T":"Outdoor"},
 {"OBJECTID":578, "LOCATION":"Beach 108 -NE Caracus Bar and Beach", "LAT":40.580704, "LON":-73.825969, "LOCATION_T":"Outdoor"},
 {"OBJECTID":579, "LOCATION":"Beach 108 - Comfort Station and Beach", "LAT":40.580352, "LON":-73.826621, "LOCATION_T":"Outdoor"},
 {"OBJECTID":580, "LOCATION":"Bergen St (2,3)", "LAT":40.680829, "LON":-73.975098, "LOCATION_T":"Subway Station"},
 {"OBJECTID":581, "LOCATION":"14 St-Union Square (L,N,Q,R,4,5,6)", "LAT":40.734673, "LON":-73.989951, "LOCATION_T":"Subway Station"},
 {"OBJECTID":721, "LOCATION":"IN PARK PLAYGROUND AREA", "LAT":40.658385, "LON":-73.887583, "LOCATION_T":"Outdoor"},
 {"OBJECTID":722, "LOCATION":"PARKING STRUCTURE 3FLR NORTH FACING ON OUTSIDE ( FIRST RADIO IN FROM RIVER ST)", "LAT":40.825696, "LON":-73.927311, "LOCATION_T":"Outdoor"},
 {"OBJECTID":723, "LOCATION":"PARKING STRUCTURE 3FLR NORTH FACING ON OUTSIDE  ( SECOND RADIO IN FROM RIVER ST)", "LAT":40.825815, "LON":-73.927731, "LOCATION_T":"Outdoor"},
 {"OBJECTID":724, "LOCATION":"PARKING STRUCTURE 3FLR NORTH FACING ON OUTSIDE ( THIRD RADIO IN FROM RIVER ST)", "LAT":40.825947, "LON":-73.928134, "LOCATION_T":"Outdoor"},
 {"OBJECTID":725, "LOCATION":"PARKING STRUCTURE 3FLR NORTH FACING ON OUTSIDE  ( FOURTH RADIO IN FROM RIVER ST)", "LAT":40.826103, "LON":-73.928537, "LOCATION_T":"Outdoor"},
 {"OBJECTID":726, "LOCATION":"PARKING STRUCTURE 3FLR NORTH FACING ON OUTSIDE  ( FIFTH RADIO IN FROM RIVER ST)", "LAT":40.826378, "LON":-73.929249, "LOCATION_T":"Outdoor"},
 {"OBJECTID":727, "LOCATION":"DOT POLE ON RIVER AVE C/O 158 ST ( WEST SIDE OF STREET)", "LAT":40.826567, "LON":-73.926762, "LOCATION_T":"Outdoor"},
 {"OBJECTID":728, "LOCATION":"DOT POLE 2 POLES NORTH OF 158 ST ( WEST SIDE OF STREET)", "LAT":40.82707, "LON":-73.926461, "LOCATION_T":"Outdoor"},
 {"OBJECTID":729, "LOCATION":"DOT POLE 161 ST I/P/W/O RIVER AVE", "LAT":40.827868, "LON":-73.926903, "LOCATION_T":"Outdoor"},
 {"OBJECTID":730, "LOCATION":"DOT POLE  ACROSS YANKEE STADIUM ON 161 ST", "LAT":40.828149, "LON":-73.927457, "LOCATION_T":"Outdoor"},
 {"OBJECTID":731, "LOCATION":"SPEAKER POLE EAST OF TRACK AND FIELD ( NORTH )", "LAT":40.827902, "LON":-73.928356, "LOCATION_T":"Outdoor"},
 {"OBJECTID":732, "LOCATION":"SPEAKER POLE EAST OF TRACK AND FIELD( MIDDLE )", "LAT":40.827799, "LON":-73.928565, "LOCATION_T":"Outdoor"},
 {"OBJECTID":733, "LOCATION":"ORIENTAL BL  1/P/W/O GIRARD ST", "LAT":40.57776, "LON":-73.94556, "LOCATION_T":"Outdoor"},
 {"OBJECTID":734, "LOCATION":"C/O ORIENTAL BL  /IRWIN ST", "LAT":40.57798, "LON":-73.94355, "LOCATION_T":"Outdoor"},
 {"OBJECTID":735, "LOCATION":"ROOF OF BEACH HOUSE EAST SIDE", "LAT":40.57696, "LON":-73.94359, "LOCATION_T":"Outdoor"},
 {"OBJECTID":736, "LOCATION":"ROOF OF BEACH HOUSE WEST SIDE", "LAT":40.57687, "LON":-73.94459, "LOCATION_T":"Outdoor"},
 {"OBJECTID":737, "LOCATION":"ORIENTAL BL  1/P/W/O KENSINGTON ST", "LAT":40.57817, "LON":-73.94182, "LOCATION_T":"Outdoor"},
 {"OBJECTID":738, "LOCATION":"ORIENTAL BL  1/P/W/O LANGHAMST", "LAT":40.57829, "LON":-73.94091, "LOCATION_T":"Outdoor"},
 {"OBJECTID":739, "LOCATION":"ORIENTAL BL  1/P/W/O NORFOLK ST", "LAT":40.57843, "LON":-73.93907, "LOCATION_T":"Outdoor"},
 {"OBJECTID":740, "LOCATION":"ORIENTAL BL 1/P/W/O MCKENZIE ST", "LAT":40.57838, "LON":-73.93992, "LOCATION_T":"Outdoor"},
 {"OBJECTID":741, "LOCATION":"ORIENTAL BL  1/P/W/O JAFFRAY AV", "LAT":40.57811, "LON":-73.94273, "LOCATION_T":"Outdoor"},
 {"OBJECTID":742, "LOCATION":"ORIENTAL BL 1/P/W/O HASTINGS ST", "LAT":40.57787, "LON":-73.9446, "LOCATION_T":"Outdoor"},
 {"OBJECTID":743, "LOCATION":"ORIENTAL BL 1/P/E/O OCEAN AV", "LAT":40.57622, "LON":-73.94552, "LOCATION_T":"Outdoor"},
 {"OBJECTID":744, "LOCATION":"OCEAN AV 4/P/S/O ORIENTAL BL", "LAT":40.5761, "LON":-73.94698, "LOCATION_T":"Outdoor"},
 {"OBJECTID":745, "LOCATION":"ROOF OF BEACH HOUSE EAST SIDE", "LAT":40.57696, "LON":-73.94359, "LOCATION_T":"Outdoor"},
 {"OBJECTID":746, "LOCATION":"ROOF OF BEACH HOUSE EAST SIDE", "LAT":40.57696, "LON":-73.94359, "LOCATION_T":"Outdoor"},
 {"OBJECTID":747, "LOCATION":"ROOF OF BEACH HOUSE WEST SIDE", "LAT":40.57687, "LON":-73.94459, "LOCATION_T":"Outdoor"},
 {"OBJECTID":748, "LOCATION":"IN PARK BELOW PLAYGROUND AREA SOUTH SIDE", "LAT":40.70254, "LON":-73.923816, "LOCATION_T":"Outdoor"},
 {"OBJECTID":749, "LOCATION":"IN PARK  BTWEEN HANDBALL COURTS  SOUTH SIDE", "LAT":40.703041, "LON":-73.923628, "LOCATION_T":"Outdoor"},
 {"OBJECTID":750, "LOCATION":"9th and 15th", "LAT":40.7415832891, "LON":-74.0047109131, "LOCATION_T":"Outdoor"},
 {"OBJECTID":751, "LOCATION":"8th and 16th", "LAT":40.7410467844, "LON":-74.001803398, "LOCATION_T":"Outdoor"},
 {"OBJECTID":752, "LOCATION":"17th Caledonia", "LAT":40.7436317201, "LON":-74.0059179066, "LOCATION_T":"Outdoor"},
 {"OBJECTID":753, "LOCATION":"9th and 16th", "LAT":40.7421021446, "LON":-74.0042110753, "LOCATION_T":"Outdoor"},
 {"OBJECTID":754, "LOCATION":"2102 Madison Ave", "LAT":40.810014, "LON":-73.937553, "LOCATION_T":"Outdoor"},
 {"OBJECTID":755, "LOCATION":"1641 Madison Ave_NYCHA", "LAT":40.795988, "LON":-73.947426, "LOCATION_T":"Outdoor"},
 {"OBJECTID":756, "LOCATION":"Pole 46 - 8avES1N122", "LAT":40.808227, "LON":-73.952457, "LOCATION_T":"Outdoor"},
 {"OBJECTID":757, "LOCATION":"Pole 45 - 8avES1N121", "LAT":40.807543, "LON":-73.952793, "LOCATION_T":"Outdoor"},
 {"OBJECTID":758, "LOCATION":"Pole 67n - 131NS2ELe", "LAT":40.811042, "LON":-73.941404, "LOCATION_T":"Outdoor"},
 {"OBJECTID":759, "LOCATION":"Pole 14 - 111 and St nick", "LAT":40.798959, "LON":-73.952396, "LOCATION_T":"Outdoor"},
 {"OBJECTID":760, "LOCATION":"Pole 43 - 121NECLe", "LAT":40.805097, "LON":-73.947042, "LOCATION_T":"Outdoor"},
 {"OBJECTID":761, "LOCATION":"pole 28 - 119NS1WLenox", "LAT":40.80409, "LON":-73.948564, "LOCATION_T":"Outdoor"},
 {"OBJECTID":762, "LOCATION":"Pole 70 - 5avWS1N130", "LAT":40.809888, "LON":-73.939012, "LOCATION_T":"Outdoor"},
 {"OBJECTID":763, "LOCATION":"pole 41: 7avNWC124", "LAT":40.808338, "LON":-73.948989, "LOCATION_T":"Outdoor"},
 {"OBJECTID":764, "LOCATION":"Harlem Hospital South", "LAT":40.814105, "LON":-73.940443, "LOCATION_T":"Outdoor"},
 {"OBJECTID":765, "LOCATION":"Harlem Hospital North", "LAT":40.815132, "LON":-73.939685, "LOCATION_T":"Outdoor"},
 {"OBJECTID":766, "LOCATION":"Harlem Hospital Center", "LAT":40.814563, "LON":-73.94003, "LOCATION_T":"Outdoor"},
 {"OBJECTID":767, "LOCATION":"9 W110", "LAT":40.797467, "LON":-73.950717, "LOCATION_T":"Outdoor"},
 {"OBJECTID":768, "LOCATION":"50 Lenox Ave_NYCHA", "LAT":40.799703, "LON":-73.950994, "LOCATION_T":"Outdoor"},
 {"OBJECTID":769, "LOCATION":"50 Lenox Ave. 112th St. Side_NYCHA", "LAT":40.799435, "LON":-73.950994, "LOCATION_T":"Outdoor"},
 {"OBJECTID":770, "LOCATION":"42 West 120th Street_THAL (new)", "LAT":40.803786, "LON":-73.946159, "LOCATION_T":"Outdoor"},
 {"OBJECTID":771, "LOCATION":"1 Boerum Place", "LAT":40.69186, "LON":-73.988721, "LOCATION_T":"Outdoor"},
 {"OBJECTID":772, "LOCATION":"1 Boerum Place", "LAT":40.691677, "LON":-73.988841, "LOCATION_T":"Outdoor"},
 {"OBJECTID":773, "LOCATION":"1 Boerum Place", "LAT":40.691569, "LON":-73.988711, "LOCATION_T":"Outdoor"},
 {"OBJECTID":774, "LOCATION":"1 Dekalb Ave.", "LAT":40.690137, "LON":-73.983226, "LOCATION_T":"Outdoor"},
 {"OBJECTID":775, "LOCATION":"1 Dekalb Ave.", "LAT":40.690072, "LON":-73.982325, "LOCATION_T":"Outdoor"},
 {"OBJECTID":780, "LOCATION":"1 University Plaza (LIU)", "LAT":40.690233, "LON":-73.981328, "LOCATION_T":"Outdoor"},
 {"OBJECTID":781, "LOCATION":"1 University Plaza (LIU)", "LAT":40.689967, "LON":-73.981214, "LOCATION_T":"Outdoor"},
 {"OBJECTID":782, "LOCATION":"1 University Plaza (LIU)", "LAT":40.689989, "LON":-73.980928, "LOCATION_T":"Outdoor"},
 {"OBJECTID":783, "LOCATION":"1 University Plaza (LIU)", "LAT":40.690622, "LON":-73.981414, "LOCATION_T":"Outdoor"},
 {"OBJECTID":784, "LOCATION":"110 Livingston St.", "LAT":40.690883, "LON":-73.989635, "LOCATION_T":"Outdoor"},
 {"OBJECTID":785, "LOCATION":"110 Livingston St.", "LAT":40.690883, "LON":-73.989635, "LOCATION_T":"Outdoor"},
 {"OBJECTID":786, "LOCATION":"110 Livingston St.", "LAT":40.690883, "LON":-73.989635, "LOCATION_T":"Outdoor"},
 {"OBJECTID":787, "LOCATION":"110 Livingston St.", "LAT":40.690883, "LON":-73.989635, "LOCATION_T":"Outdoor"},
 {"OBJECTID":788, "LOCATION":"110 Livingston St.", "LAT":40.690883, "LON":-73.989635, "LOCATION_T":"Outdoor"},
 {"OBJECTID":798, "LOCATION":"pole 08: 112NS3ELe", "LAT":40.798806, "LON":-73.949975, "LOCATION_T":"Outdoor"},
 {"OBJECTID":799, "LOCATION":"pole 07: MavNWC120", "LAT":40.802617, "LON":-73.943026, "LOCATION_T":"Outdoor"},
 {"OBJECTID":800, "LOCATION":"pole 06: MavSEC119th", "LAT":40.801832, "LON":-73.943462, "LOCATION_T":"Outdoor"},
 {"OBJECTID":801, "LOCATION":"pole 05: MavSWC118", "LAT":40.801112, "LON":-73.943796, "LOCATION_T":"Outdoor"},
 {"OBJECTID":802, "LOCATION":"pole 04: MavC112", "LAT":40.797335, "LON":-73.946924, "LOCATION_T":"Outdoor"},
 {"OBJECTID":803, "LOCATION":"pole 03: MavES1S116", "LAT":40.799721, "LON":-73.944932, "LOCATION_T":"Outdoor"},
 {"OBJECTID":804, "LOCATION":"pole 02: MavWSMB113", "LAT":40.797893, "LON":-73.946259, "LOCATION_T":"Outdoor"},
 {"OBJECTID":805, "LOCATION":"Open Seating", "LAT":40.677193, "LON":-74.008723, "LOCATION_T":"Outdoor"},
 {"OBJECTID":806, "LOCATION":"Playground Area", "LAT":40.677193, "LON":-74.008723, "LOCATION_T":"Outdoor"},
 {"OBJECTID":807, "LOCATION":"Baseball Field", "LAT":40.677193, "LON":-74.008723, "LOCATION_T":"Outdoor"},
 {"OBJECTID":808, "LOCATION":"Parking lot on Union Turn Pike at 196th Place", "LAT":40.73121, "LON":-73.774084, "LOCATION_T":"Outdoor TWC Aerial"},
 {"OBJECTID":809, "LOCATION":"Ball field 3 on Union Turn Pike at 194th St", "LAT":40.730544, "LON":-73.776718, "LOCATION_T":"Outdoor TWC Aerial"},
 {"OBJECTID":810, "LOCATION":"Parking lot and Tennis Courts", "LAT":40.730124, "LON":-73.773857, "LOCATION_T":"Outdoor"},
 {"OBJECTID":811, "LOCATION":"Parking lot and Tennis Courts", "LAT":40.730124, "LON":-73.773857, "LOCATION_T":"Outdoor"},
 {"OBJECTID":812, "LOCATION":"Playground off 193rd and Aberdeen", "LAT":40.726811, "LON":-73.775861, "LOCATION_T":"Outdoor TWC Aerial"},
 {"OBJECTID":813, "LOCATION":"Parking lot and Tennis Courts", "LAT":40.729869, "LON":-73.773841, "LOCATION_T":"Outdoor"},
 {"OBJECTID":814, "LOCATION":"Park Area at W63rd & Columbus", "LAT":40.772005, "LON":-73.982384, "LOCATION_T":"Outdoor"},
 {"OBJECTID":815, "LOCATION":"Playground", "LAT":40.61299, "LON":-74.012924, "LOCATION_T":"Outdoor"},
 {"OBJECTID":816, "LOCATION":"Park Area", "LAT":40.730822, "LON":-73.884479, "LOCATION_T":"Outdoor TWC Aerial"},
 {"OBJECTID":817, "LOCATION":"Park Area", "LAT":40.730489, "LON":-73.8842, "LOCATION_T":"Outdoor TWC Aerial"},
 {"OBJECTID":818, "LOCATION":"Park Area", "LAT":40.728838, "LON":-73.883751, "LOCATION_T":"Outdoor TWC Aerial"},
 {"OBJECTID":819, "LOCATION":"East and South Park Area", "LAT":40.771442, "LON":-73.988109, "LOCATION_T":"Outdoor"},
 {"OBJECTID":820, "LOCATION":"1st Floor, North Multi-purpose Rm", "LAT":40.771442, "LON":-73.988109, "LOCATION_T":"Indoor"},
 {"OBJECTID":821, "LOCATION":"1st Floor, South Multi-purpose Rm", "LAT":40.771442, "LON":-73.988109, "LOCATION_T":"Indoor"},
 {"OBJECTID":822, "LOCATION":"1st Floor, North Lobby", "LAT":40.771442, "LON":-73.988109, "LOCATION_T":"Indoor"},
 {"OBJECTID":823, "LOCATION":"2nd Floor, South Lobby", "LAT":40.771442, "LON":-73.988109, "LOCATION_T":"Indoor"},
 {"OBJECTID":824, "LOCATION":"2nd Floor, South Fitness Center", "LAT":40.771442, "LON":-73.988109, "LOCATION_T":"Indoor"},
 {"OBJECTID":825, "LOCATION":"Parking area and ballfield", "LAT":40.59205, "LON":-74.139087, "LOCATION_T":"Outdoor TWC Aerial"},
 {"OBJECTID":826, "LOCATION":"Parking area and ballfield", "LAT":40.591904, "LON":-74.138573, "LOCATION_T":"Outdoor TWC Aerial"},
 {"OBJECTID":827, "LOCATION":"Parking area and ballfield", "LAT":40.592023, "LON":-74.138056, "LOCATION_T":"Outdoor TWC Aerial"},
 {"OBJECTID":828, "LOCATION":"1st Floor", "LAT":40.591847, "LON":-74.139153, "LOCATION_T":"Indoor"},
 {"OBJECTID":829, "LOCATION":"2nd Floor", "LAT":40.59203, "LON":-74.13812, "LOCATION_T":"Indoor"},
 {"OBJECTID":830, "LOCATION":"Lobby", "LAT":40.71996, "LON":-73.981478, "LOCATION_T":"Indoor"},
 {"OBJECTID":831, "LOCATION":"North East area", "LAT":40.720102, "LON":-73.981299, "LOCATION_T":"Outdoor"},
 {"OBJECTID":832, "LOCATION":"160 Schermerhorn St.", "LAT":40.689319, "LON":-73.987162, "LOCATION_T":"Outdoor"},
 {"OBJECTID":833, "LOCATION":"160 Schermerhorn St.", "LAT":40.689319, "LON":-73.987162, "LOCATION_T":"Outdoor"},
 {"OBJECTID":834, "LOCATION":"160 Schermerhorn St.", "LAT":40.689319, "LON":-73.987162, "LOCATION_T":"Outdoor"},
 {"OBJECTID":835, "LOCATION":"IN PARK ABOVE  PLAYGROUND  NORTH SIDE", "LAT":40.702978, "LON":-73.924737, "LOCATION_T":"Outdoor"},
 {"OBJECTID":836, "LOCATION":"IN PARK LEFT SIDE OF BASKETBNALL COURTS NORTH SIDE", "LAT":40.703308, "LON":-73.924087, "LOCATION_T":"Outdoor"},
 {"OBJECTID":837, "LOCATION":"BACK WALL OF NATURE CENTER", "LAT":40.603993, "LON":-73.930671, "LOCATION_T":"Indoor"},
 {"OBJECTID":838, "LOCATION":"EXHIBIT HALL OF NATURE CENTER", "LAT":40.604068, "LON":-73.93076, "LOCATION_T":"Indoor"},
 {"OBJECTID":839, "LOCATION":"AVE U 1/P/W/O E 33RD ST", "LAT":40.605008, "LON":-73.930027, "LOCATION_T":"Outdoor"},
 {"OBJECTID":840, "LOCATION":"C/O AVE U/ E 35TH ST", "LAT":40.606029, "LON":-73.928466, "LOCATION_T":"Outdoor"},
 {"OBJECTID":841, "LOCATION":"AVE U 4/P/W/O E. 33RD ST", "LAT":40.604383, "LON":-73.931063, "LOCATION_T":"Outdoor"},
 {"OBJECTID":842, "LOCATION":"BA ON WEST SIDE OF BLDG", "LAT":40.840657, "LON":-73.842668, "LOCATION_T":"Outdoor"},
 {"OBJECTID":843, "LOCATION":"BA ON EAST SIDE OF BLDG", "LAT":40.840657, "LON":-73.842668, "LOCATION_T":"Outdoor"},
 {"OBJECTID":844, "LOCATION":"LOBBY REC ROOM CEILING MOUNT", "LAT":40.840672, "LON":-73.842602, "LOCATION_T":"Indoor"},
 {"OBJECTID":845, "LOCATION":"C/O MIDDLETOWN RD /MCDONOUGH PL", "LAT":40.846052, "LON":-73.82495, "LOCATION_T":"Outdoor"},
 {"OBJECTID":846, "LOCATION":"Parade grounds-N/O /Tortoise & Hare statue", "LAT":40.894246, "LON":-73.896288, "LOCATION_T":"Outdoor"},
 {"OBJECTID":847, "LOCATION":"Parade grounds-S/O /Tortoise & Hare statue", "LAT":40.893739, "LON":-73.89622, "LOCATION_T":"Outdoor"},
 {"OBJECTID":848, "LOCATION":"C/O E 180TH /DALY AV", "LAT":40.844468, "LON":-73.88169, "LOCATION_T":"Outdoor"},
 {"OBJECTID":849, "LOCATION":"DALY AV 1 P/S/O E 180TH ST", "LAT":40.844141, "LON":-73.881968, "LOCATION_T":"Outdoor"},
 {"OBJECTID":850, "LOCATION":"1ST FL RECEPTION", "LAT":40.876541, "LON":-73.87845, "LOCATION_T":"Indoor"},
 {"OBJECTID":851, "LOCATION":"1ST FL SENIOR GAME ROOM", "LAT":40.876827, "LON":-73.878725, "LOCATION_T":"Indoor"},
 {"OBJECTID":852, "LOCATION":"1ST FL SENIOR LOUNGE", "LAT":40.876855, "LON":-73.878874, "LOCATION_T":"Indoor"},
 {"OBJECTID":853, "LOCATION":"2ND FL COMMUNITY ROOM", "LAT":40.876643, "LON":-73.878542, "LOCATION_T":"Indoor"},
 {"OBJECTID":854, "LOCATION":"RESERVOIR OVAL E  2/P/S/O RESERVOIR PL", "LAT":40.878445, "LON":-73.87548, "LOCATION_T":"Outdoor"},
 {"OBJECTID":855, "LOCATION":"RESERVOIR OVAL E  1/p/n/o holt pl", "LAT":40.876788, "LON":-73.876273, "LOCATION_T":"Outdoor"},
 {"OBJECTID":856, "LOCATION":"RESERVOIR OVAL E  1/p/E O BAINBRIDGE AV", "LAT":40.877001, "LON":-73.879322, "LOCATION_T":"Outdoor"},
 {"OBJECTID":857, "LOCATION":"RESERVOIR OVAL E  3/p/S/o holt pl", "LAT":40.876099, "LON":-73.877384, "LOCATION_T":"Outdoor"},
 {"OBJECTID":858, "LOCATION":"RESERVOIR OVAL E  8/p/S/o holt pl", "LAT":40.8762, "LON":-73.878749, "LOCATION_T":"Outdoor"},
 {"OBJECTID":859, "LOCATION":"HAWTHRONE ST 1 P/W/BROOKLYN AV", "LAT":40.65831, "LON":-73.94406, "LOCATION_T":"Outdoor"},
 {"OBJECTID":860, "LOCATION":"11 Fulton Street, New York, NY 10038, USA", "LAT":40.7066001999, "LON":-74.0031966998, "LOCATION_T":"Outdoor"},
 {"OBJECTID":861, "LOCATION":"16 Bond Street, New York, NY 10038, USA", "LAT":40.7051010003, "LON":-74.0026015994, "LOCATION_T":"Outdoor"},
 {"OBJECTID":862, "LOCATION":"East River Ferry, John Street, New York, NY 10006, USA", "LAT":40.7047997001, "LON":-74.0022963999, "LOCATION_T":"Outdoor"},
 {"OBJECTID":863, "LOCATION":"135 John Street, New York, NY 10038, USA", "LAT":40.7070998998, "LON":-74.0049973006, "LOCATION_T":"Outdoor"},
 {"OBJECTID":864, "LOCATION":"182-188 Front Street, New York, NY 10038, USA", "LAT":40.7065010001, "LON":-74.0045012998, "LOCATION_T":"Outdoor"},
 {"OBJECTID":865, "LOCATION":"125-133 Maiden Lane, New York, NY 10038, USA", "LAT":40.7062988002, "LON":-74.0061035001, "LOCATION_T":"Outdoor"},
 {"OBJECTID":866, "LOCATION":"5 Hanover Square, New York, NY 10004, USA", "LAT":40.7048987998, "LON":-74.0093001995, "LOCATION_T":"Outdoor"},
 {"OBJECTID":867, "LOCATION":"110 Pearl Street, New York, NY 10005, USA", "LAT":40.7047004998, "LON":-74.0089035001, "LOCATION_T":"Outdoor"},
 {"OBJECTID":868, "LOCATION":"90 Water Street, New York, NY 10005, USA", "LAT":40.7047004998, "LON":-74.0083008003, "LOCATION_T":"Outdoor"},
 {"OBJECTID":869, "LOCATION":"10th between 15th and 16th", "LAT":40.7431927759, "LON":-74.0073877576, "LOCATION_T":"Outdoor"},
 {"OBJECTID":870, "LOCATION":"16th near 9th r", "LAT":40.7425912548, "LON":-74.005064964, "LOCATION_T":"Outdoor"},
 {"OBJECTID":871, "LOCATION":"16th between 8th and 9th", "LAT":40.7418393463, "LON":-74.0032571552, "LOCATION_T":"Outdoor"},
 {"OBJECTID":872, "LOCATION":"10th and 15th", "LAT":40.7427538286, "LON":-74.0076720715, "LOCATION_T":"Outdoor"},
 {"OBJECTID":873, "LOCATION":"9th Ave and 12th St", "LAT":40.7394860202, "LON":-74.0062665941, "LOCATION_T":"Outdoor"},
 {"OBJECTID":874, "LOCATION":"10th between, 17th and 18th", "LAT":40.7444079933, "LON":-74.0066367391, "LOCATION_T":"Outdoor"},
 {"OBJECTID":875, "LOCATION":"9th between 16th and 17th", "LAT":40.7426075127, "LON":-74.0042603013, "LOCATION_T":"Outdoor"},
 {"OBJECTID":876, "LOCATION":"17th near 9th", "LAT":40.7424774535, "LON":-74.0029621124, "LOCATION_T":"Outdoor"},
 {"OBJECTID":877, "LOCATION":"8th and 18th", "LAT":40.7422986209, "LON":-74.0007090572, "LOCATION_T":"Outdoor"},
 {"OBJECTID":878, "LOCATION":"10th between 16th and 17th", "LAT":40.7436967487, "LON":-74.007017612, "LOCATION_T":"Outdoor"},
 {"OBJECTID":879, "LOCATION":"8th and 17th", "LAT":40.7415548385, "LON":-74.0011113879, "LOCATION_T":"Outdoor"},
 {"OBJECTID":880, "LOCATION":"17th near 8th", "LAT":40.741900312, "LON":-74.0018570427, "LOCATION_T":"Outdoor"},
 {"OBJECTID":881, "LOCATION":"9th and 19th SW", "LAT":40.7439893758, "LON":-74.003412724, "LOCATION_T":"Outdoor"},
 {"OBJECTID":882, "LOCATION":"14thst and 9thav r", "LAT":40.7409980115, "LON":-74.0054512019, "LOCATION_T":"Outdoor"},
 {"OBJECTID":883, "LOCATION":"9th av and 13th st", "LAT":40.7402582786, "LON":-74.006003738, "LOCATION_T":"Outdoor"},
 {"OBJECTID":884, "LOCATION":"17th between 10th and 9th", "LAT":40.7434061518, "LON":-74.0052151686, "LOCATION_T":"Outdoor"},
 {"OBJECTID":885, "LOCATION":"18th between 8th and 9th", "LAT":40.7427700859, "LON":-74.0017175673, "LOCATION_T":"Outdoor"},
 {"OBJECTID":886, "LOCATION":"15th between 8th and 9th", "LAT":40.7409492377, "LON":-74.0034019945, "LOCATION_T":"Outdoor"},
 {"OBJECTID":887, "LOCATION":"16th east of 10th Av", "LAT":40.7432415473, "LON":-74.0068030355, "LOCATION_T":"Outdoor"},
 {"OBJECTID":888, "LOCATION":"9th and 18th", "LAT":40.7434366339, "LON":-74.0036487581, "LOCATION_T":"Outdoor"},
 {"OBJECTID":889, "LOCATION":"8th and 15 th SE pole", "LAT":40.7402745363, "LON":-74.0019750591, "LOCATION_T":"Outdoor"},
 {"OBJECTID":890, "LOCATION":"Lake Club Restaurant Back Patio Dining", "LAT":40.61775, "LON":-74.108185, "LOCATION_T":"Indoor"},
 {"OBJECTID":891, "LOCATION":"Lake Club Restaurant Indoor Dining Area", "LAT":40.61775, "LON":-74.108185, "LOCATION_T":"Indoor"},
 {"OBJECTID":892, "LOCATION":"loading dock", "LAT":40.7418463958, "LON":-74.0040446358, "LOCATION_T":"Outdoor"},
 {"OBJECTID":893, "LOCATION":"85 10th lobby unit", "LAT":40.7433065761, "LON":-74.0080261233, "LOCATION_T":"Outdoor"},
 {"OBJECTID":894, "LOCATION":"Track & Field", "LAT":40.720079, "LON":-73.949511, "LOCATION_T":"Outdoor"},
 {"OBJECTID":895, "LOCATION":"Track & Field", "LAT":40.720079, "LON":-73.949511, "LOCATION_T":"Outdoor"},
 {"OBJECTID":896, "LOCATION":"Track & Field", "LAT":40.720079, "LON":-73.949511, "LOCATION_T":"Outdoor"},
 {"OBJECTID":897, "LOCATION":"Fort Hamilton PKWY Between 76th & 77th St", "LAT":40.625004, "LON":-74.017875, "LOCATION_T":"Outdoor TWC Aerial"},
 {"OBJECTID":898, "LOCATION":"Tennis Courts at 76th St. & Hamilton", "LAT":40.625313, "LON":-74.017344, "LOCATION_T":"Outdoor TWC Aerial"},
 {"OBJECTID":899, "LOCATION":"Basketball Courts at Bay Ridge Pkwy", "LAT":40.62588, "LON":-74.016509, "LOCATION_T":"Outdoor TWC Aerial"},
 {"OBJECTID":900, "LOCATION":"Entrance off 73rd St", "LAT":40.62638, "LON":-74.01579, "LOCATION_T":"Outdoor TWC Aerial"},
 {"OBJECTID":901, "LOCATION":"Comfort station & Playground area", "LAT":40.626553, "LON":-74.016787, "LOCATION_T":"Outdoor TWC Aerial"},
 {"OBJECTID":902, "LOCATION":"2nd Fl Aerobics Rm", "LAT":40.715088, "LON":-73.960502, "LOCATION_T":"Indoor"},
 {"OBJECTID":903, "LOCATION":"Lobby area", "LAT":40.715088, "LON":-73.960502, "LOCATION_T":"Indoor"},
 {"OBJECTID":904, "LOCATION":"Along Boardwalk and Beach", "LAT":40.568366, "LON":-74.090642, "LOCATION_T":"Outdoor"},
 {"OBJECTID":905, "LOCATION":"Along Boardwalk and Beach", "LAT":40.569365, "LON":-74.08949, "LOCATION_T":"Outdoor"},
 {"OBJECTID":906, "LOCATION":"Along Boardwalk and Beach", "LAT":40.570195, "LON":-74.088547, "LOCATION_T":"Outdoor"},
 {"OBJECTID":907, "LOCATION":"Along Boardwalk and Beach", "LAT":40.571268, "LON":-74.087293, "LOCATION_T":"Outdoor"},
 {"OBJECTID":908, "LOCATION":"Along Boardwalk and Beach", "LAT":40.572313, "LON":-74.086013, "LOCATION_T":"Outdoor"},
 {"OBJECTID":909, "LOCATION":"Along Boardwalk and Beach", "LAT":40.573338, "LON":-74.084406, "LOCATION_T":"Outdoor"},
 {"OBJECTID":925, "LOCATION":"Park Perimeter", "LAT":40.74726, "LON":-73.80286, "LOCATION_T":"Outdoor TWC Aerial"},
 {"OBJECTID":926, "LOCATION":"Park Perimeter", "LAT":40.74914, "LON":-73.8027, "LOCATION_T":"Outdoor TWC Aerial"},
 {"OBJECTID":927, "LOCATION":"Park Perimeter", "LAT":40.75, "LON":-73.80506, "LOCATION_T":"Outdoor TWC Aerial"},
 {"OBJECTID":928, "LOCATION":"Park Perimeter", "LAT":40.75017, "LON":-73.80719, "LOCATION_T":"Outdoor TWC Aerial"},
 {"OBJECTID":929, "LOCATION":"Park Perimeter", "LAT":40.74761, "LON":-73.8117, "LOCATION_T":"Outdoor TWC Aerial"},
 {"OBJECTID":930, "LOCATION":"Entire Park", "LAT":40.6915, "LON":-73.9755, "LOCATION_T":"Outdoor"},
 {"OBJECTID":931, "LOCATION":"Amphitheater", "LAT":40.6898, "LON":-73.9462, "LOCATION_T":"Outdoor"},
 {"OBJECTID":932, "LOCATION":"Park Perimeter", "LAT":40.74756, "LON":-73.81815, "LOCATION_T":"Outdoor TWC Aerial"},
 {"OBJECTID":933, "LOCATION":"NW area by dog run off 5th Ave", "LAT":40.742378, "LON":-73.988692, "LOCATION_T":"Outdoor"},
 {"OBJECTID":934, "LOCATION":"NW area near E. 26th St off 5th Ave", "LAT":40.7431, "LON":-73.9883, "LOCATION_T":"Outdoor"},
 {"OBJECTID":935, "LOCATION":"NE area by Shake Shack off Madison Ave", "LAT":40.7411, "LON":-73.987914, "LOCATION_T":"Outdoor"},
 {"OBJECTID":936, "LOCATION":"NE area off Madison Ave between 25th St and 24th St", "LAT":40.741875, "LON":-73.987364, "LOCATION_T":"Outdoor"},
 {"OBJECTID":937, "LOCATION":"NW area by dog run off 5th Ave", "LAT":40.742492, "LON":-73.986906, "LOCATION_T":"Outdoor"},
 {"OBJECTID":938, "LOCATION":"NE area off Madison Ave near E. 26th St", "LAT":40.74148, "LON":-73.98894, "LOCATION_T":"Outdoor"},
 {"OBJECTID":939, "LOCATION":"Park Bandshell Area", "LAT":40.663256, "LON":-73.976164, "LOCATION_T":"Outdoor TWC Aerial"},
 {"OBJECTID":940, "LOCATION":"Park Bandshell Area", "LAT":40.663019, "LON":-73.976292, "LOCATION_T":"Outdoor TWC Aerial"},
 {"OBJECTID":941, "LOCATION":"Field House area", "LAT":40.7201, "LON":-73.9502, "LOCATION_T":"Outdoor"},
 {"OBJECTID":942, "LOCATION":"Near the Picnic House", "LAT":40.6509, "LON":-73.9683, "LOCATION_T":"Outdoor"},
 {"OBJECTID":943, "LOCATION":"South side near Sheep Meadow/ Mineral Spring", "LAT":40.7729, "LON":-73.974, "LOCATION_T":"Outdoor"},
 {"OBJECTID":944, "LOCATION":"South side near Rumsey Playfield", "LAT":40.771, "LON":-73.9709, "LOCATION_T":"Outdoor"},
 {"OBJECTID":954, "LOCATION":"MULTIPURPOSE RM DROP CEILING-2ND FL", "LAT":40.811544, "LON":-73.914138, "LOCATION_T":"Indoor"},
 {"OBJECTID":955, "LOCATION":"HALL CEILING-2ND FL", "LAT":40.811544, "LON":-73.914138, "LOCATION_T":"Indoor"},
 {"OBJECTID":956, "LOCATION":"FAN ROOM -3RD FLOOR", "LAT":40.811544, "LON":-73.914138, "LOCATION_T":"Indoor"},
 {"OBJECTID":957, "LOCATION":"FAN ROOM -3RD FLOOR", "LAT":40.811544, "LON":-73.914138, "LOCATION_T":"Indoor"},
 {"OBJECTID":958, "LOCATION":"ROOF OF RESTROOM BLDG RIGHT", "LAT":40.811544, "LON":-73.914138, "LOCATION_T":"Outdoor"},
 {"OBJECTID":959, "LOCATION":"ROOF OF RESTROOM BLDG LEFT", "LAT":40.811544, "LON":-73.914138, "LOCATION_T":"Outdoor"},
 {"OBJECTID":960, "LOCATION":"W 17TH ST 1 P/N/O SURF AV", "LAT":40.576111, "LON":-73.984734, "LOCATION_T":"Outdoor"},
 {"OBJECTID":961, "LOCATION":"W 16TH ST 1 P/N/O SURF AV", "LAT":40.57585, "LON":-73.9835, "LOCATION_T":"Outdoor"},
 {"OBJECTID":962, "LOCATION":"W 19TH ST 1 P/N/O SURF AV", "LAT":40.57564, "LON":-73.98567, "LOCATION_T":"Outdoor"},
 {"OBJECTID":963, "LOCATION":"Near Performance Stage", "LAT":40.8177, "LON":-73.8811, "LOCATION_T":"Outdoor"},
 {"OBJECTID":964, "LOCATION":"Park Perimeter", "LAT":40.678334, "LON":-73.783477, "LOCATION_T":"Outdoor TWC Aerial"},
 {"OBJECTID":965, "LOCATION":"Park Perimeter", "LAT":40.6676, "LON":-73.78942, "LOCATION_T":"Outdoor TWC Aerial"},
 {"OBJECTID":966, "LOCATION":"Park Perimeter", "LAT":40.68161, "LON":-73.78825, "LOCATION_T":"Outdoor TWC Aerial"},
 {"OBJECTID":967, "LOCATION":"Park Perimeter", "LAT":40.68053, "LON":-73.78747, "LOCATION_T":"Outdoor TWC Aerial"},
 {"OBJECTID":968, "LOCATION":"Park Perimeter", "LAT":40.67963, "LON":-73.78745, "LOCATION_T":"Outdoor TWC Aerial"},
 {"OBJECTID":969, "LOCATION":"Park Perimeter", "LAT":40.68301, "LON":-73.78482, "LOCATION_T":"Outdoor TWC Aerial"},
 {"OBJECTID":970, "LOCATION":"Near Tennis Courts", "LAT":40.8631, "LON":-73.9065, "LOCATION_T":"Outdoor"},
 {"OBJECTID":971, "LOCATION":"North Playground", "LAT":40.8285, "LON":-73.9227, "LOCATION_T":"Outdoor"},
 {"OBJECTID":972, "LOCATION":"Park Perimeter", "LAT":40.68462, "LON":-73.78589, "LOCATION_T":"Outdoor TWC Aerial"},
 {"OBJECTID":973, "LOCATION":"Park Perimeter", "LAT":40.68495, "LON":-73.78722, "LOCATION_T":"Outdoor TWC Aerial"},
 {"OBJECTID":974, "LOCATION":"Park Perimeter", "LAT":40.67814, "LON":-73.78711, "LOCATION_T":"Outdoor TWC Aerial"},
 {"OBJECTID":975, "LOCATION":"Park Perimeter", "LAT":40.67662, "LON":-73.78695, "LOCATION_T":"Outdoor TWC Aerial"},
 {"OBJECTID":976, "LOCATION":"Park Perimeter", "LAT":40.67934, "LON":-73.78444, "LOCATION_T":"Outdoor TWC Aerial"},
 {"OBJECTID":977, "LOCATION":"Park Perimeter", "LAT":40.68079, "LON":-73.78468, "LOCATION_T":"Outdoor TWC Aerial"},
 {"OBJECTID":978, "LOCATION":"Park Perimeter", "LAT":40.67268, "LON":-73.78678, "LOCATION_T":"Outdoor TWC Aerial"},
 {"OBJECTID":979, "LOCATION":"Park Perimeter", "LAT":40.67318, "LON":-73.78517, "LOCATION_T":"Outdoor TWC Aerial"},
 {"OBJECTID":980, "LOCATION":"Park Perimeter", "LAT":40.67609, "LON":-73.78254, "LOCATION_T":"Outdoor TWC Aerial"},
 {"OBJECTID":981, "LOCATION":"Park Perimeter", "LAT":40.67486, "LON":-73.78412, "LOCATION_T":"Outdoor TWC Aerial"},
 {"OBJECTID":982, "LOCATION":"Near Vine St and Columbia Heights", "LAT":40.7015, "LON":-73.9943, "LOCATION_T":"Outdoor"},
 {"OBJECTID":983, "LOCATION":"Park Perimeter", "LAT":40.67506, "LON":-73.78744, "LOCATION_T":"Outdoor TWC Aerial"},
 {"OBJECTID":984, "LOCATION":"Park Perimeter", "LAT":40.67454, "LON":-73.78955, "LOCATION_T":"Outdoor TWC Aerial"},
 {"OBJECTID":985, "LOCATION":"Park Perimeter", "LAT":40.6714, "LON":-73.78861, "LOCATION_T":"Outdoor TWC Aerial"},
 {"OBJECTID":986, "LOCATION":"Park Perimeter", "LAT":40.66978, "LON":-73.78896, "LOCATION_T":"Outdoor TWC Aerial"},
 {"OBJECTID":1076, "LOCATION":"3 Avenue - 138 St [6]", "LAT":40.810476, "LON":-73.926138, "LOCATION_T":"Subway Station"},
 {"OBJECTID":1077, "LOCATION":"138 St - Grand Concourse [4,5]", "LAT":40.813224, "LON":-73.929849, "LOCATION_T":"Subway Station"},
 {"OBJECTID":1078, "LOCATION":"149 St - Grand Concourse", "LAT":40.81841, "LON":-73.926718, "LOCATION_T":"Subway Station"},
 {"OBJECTID":1079, "LOCATION":"149 St - Grand Concourse [4]", "LAT":40.818375, "LON":-73.927351, "LOCATION_T":"Subway Station"},
 {"OBJECTID":1080, "LOCATION":"14th Street - 7th Avenue", "LAT":40.737826, "LON":-74.000201, "LOCATION_T":"Subway Station"},
 {"OBJECTID":1081, "LOCATION":"14th Street - 8th Avenue", "LAT":40.740893, "LON":-74.00169, "LOCATION_T":"Subway Station"},
 {"OBJECTID":1082, "LOCATION":"Between 14th and 16th Streets on 6th Avenue", "LAT":40.737335, "LON":-73.996786, "LOCATION_T":"Subway Station"},
 {"OBJECTID":1083, "LOCATION":"14th Street - 6th Avenue", "LAT":40.738228, "LON":-73.996209, "LOCATION_T":"Subway Station"},
 {"OBJECTID":1084, "LOCATION":"18th Street - 7th Avenue", "LAT":40.74104, "LON":-73.997871, "LOCATION_T":"Subway Station"},
 {"OBJECTID":1085, "LOCATION":"23rd Street - 7th Avenue", "LAT":40.744081, "LON":-73.995657, "LOCATION_T":"Subway Station"},
 {"OBJECTID":1086, "LOCATION":"23rd Street - 8th Avenue", "LAT":40.745906, "LON":-73.998041, "LOCATION_T":"Subway Station"},
 {"OBJECTID":1087, "LOCATION":"23rd Street \u00e2\u20ac\u201c Broadway", "LAT":40.741303, "LON":-73.989344, "LOCATION_T":"Subway Station"},
 {"OBJECTID":1088, "LOCATION":"West 23 Street and 6 Avenue", "LAT":40.742878, "LON":-73.992821, "LOCATION_T":"Subway Station"},
 {"OBJECTID":1089, "LOCATION":"East 23 Street and Park Avenue", "LAT":40.739864, "LON":-73.986599, "LOCATION_T":"Subway Station"},
 {"OBJECTID":1090, "LOCATION":"28th Street  - 7th Avenue", "LAT":40.747215, "LON":-73.993365, "LOCATION_T":"Subway Station"},
 {"OBJECTID":1091, "LOCATION":"28th Street - Broadway", "LAT":40.745494, "LON":-73.988691, "LOCATION_T":"Subway Station"},
 {"OBJECTID":1092, "LOCATION":"28th Street - Park Avenue South", "LAT":40.74307, "LON":-73.984264, "LOCATION_T":"Subway Station"},
 {"OBJECTID":1093, "LOCATION":"33rd Street - Park Avenue South", "LAT":40.746081, "LON":-73.982076, "LOCATION_T":"Subway Station"},
 {"OBJECTID":1094, "LOCATION":"34th STREET - 6 Avenue and Broadway", "LAT":40.749567, "LON":-73.98795, "LOCATION_T":"Subway Station"},
 {"OBJECTID":1095, "LOCATION":"34th STREET - 6 Avenue and Broadway", "LAT":40.749719, "LON":-73.987823, "LOCATION_T":"Subway Station"},
 {"OBJECTID":1096, "LOCATION":"42th Street - 6 Avenue", "LAT":40.754222, "LON":-73.984569, "LOCATION_T":"Subway Station"},
 {"OBJECTID":1097, "LOCATION":"42nd Street \u00e2\u20ac\u201c Port Authority", "LAT":40.757308, "LON":-73.989735, "LOCATION_T":"Subway Station"},
 {"OBJECTID":1098, "LOCATION":"47-50th Street \u00e2\u20ac\u201c Rockefeller Center", "LAT":40.758663, "LON":-73.981329, "LOCATION_T":"Subway Station"},
 {"OBJECTID":1099, "LOCATION":"49th Street - 7th Avenue", "LAT":40.759901, "LON":-73.984139, "LOCATION_T":"Subway Station"},
 {"OBJECTID":1100, "LOCATION":"50th Street - Broadway", "LAT":40.761728, "LON":-73.983849, "LOCATION_T":"Subway Station"},
 {"OBJECTID":1101, "LOCATION":"57th Street - 6th Avenue", "LAT":40.763971, "LON":-73.977451, "LOCATION_T":"Subway Station"},
 {"OBJECTID":1102, "LOCATION":"57th Street - 7th Avenue (Midtown)", "LAT":40.764664, "LON":-73.980658, "LOCATION_T":"Subway Station"},
 {"OBJECTID":1103, "LOCATION":"Broadway - West 59 Street- Columbus Circle", "LAT":40.768247, "LON":-73.981929, "LOCATION_T":"Subway Station"},
 {"OBJECTID":1104, "LOCATION":"Broadway - West 59 Street- Columbus Circle", "LAT":40.768296, "LON":-73.981736, "LOCATION_T":"Subway Station"},
 {"OBJECTID":1105, "LOCATION":"5th Avenue - 53rd Street", "LAT":40.760167, "LON":-73.975224, "LOCATION_T":"Subway Station"},
 {"OBJECTID":1106, "LOCATION":"5th Avenue - 59th Street", "LAT":40.764811, "LON":-73.973347, "LOCATION_T":"Subway Station"},
 {"OBJECTID":1107, "LOCATION":"5th Avenue and East 42 Street", "LAT":40.753821, "LON":-73.981963, "LOCATION_T":"Subway Station"},
 {"OBJECTID":1183, "LOCATION":"Along Boardwalk and Beach", "LAT":40.575083, "LON":-74.081683, "LOCATION_T":"Outdoor"},
 {"OBJECTID":1184, "LOCATION":"Along Boardwalk and Beach", "LAT":40.575748, "LON":-74.080677, "LOCATION_T":"Outdoor"},
 {"OBJECTID":1185, "LOCATION":"Along Boardwalk and Beach", "LAT":40.576236, "LON":-74.079987, "LOCATION_T":"Outdoor"},
 {"OBJECTID":1186, "LOCATION":"Along Boardwalk and Beach", "LAT":40.576483, "LON":-74.079624, "LOCATION_T":"Outdoor"},
 {"OBJECTID":1187, "LOCATION":"Along Boardwalk and Beach", "LAT":40.577222, "LON":-74.078581, "LOCATION_T":"Outdoor"},
 {"OBJECTID":1188, "LOCATION":"Along Boardwalk and Beach", "LAT":40.577772, "LON":-74.077993, "LOCATION_T":"Outdoor"},
 {"OBJECTID":1189, "LOCATION":"Along Boardwalk and Beach", "LAT":40.578631, "LON":-74.076801, "LOCATION_T":"Outdoor"},
 {"OBJECTID":1190, "LOCATION":"Along Boardwalk and Beach", "LAT":40.579581, "LON":-74.076359, "LOCATION_T":"Outdoor"},
 {"OBJECTID":1191, "LOCATION":"Along Boardwalk and Beach", "LAT":40.579986, "LON":-74.075899, "LOCATION_T":"Outdoor"},
 {"OBJECTID":1192, "LOCATION":"1st Fl Conference Rm", "LAT":40.710818, "LON":-73.835528, "LOCATION_T":"Indoor"},
 {"OBJECTID":1193, "LOCATION":"Area by comfort station", "LAT":40.709773, "LON":-73.835599, "LOCATION_T":"Outdoor"},
 {"OBJECTID":1194, "LOCATION":"Area outside HQ building", "LAT":40.710688, "LON":-73.835515, "LOCATION_T":"Outdoor"},
 {"OBJECTID":1195, "LOCATION":"Comfort station - Front Left", "LAT":40.639278, "LON":-74.032091, "LOCATION_T":"Outdoor"},
 {"OBJECTID":1196, "LOCATION":"Comfort station - Front right", "LAT":40.639231, "LON":-74.031933, "LOCATION_T":"Outdoor"},
 {"OBJECTID":1197, "LOCATION":"Comfort station - Back Right", "LAT":40.639292, "LON":-74.031896, "LOCATION_T":"Outdoor"},
 {"OBJECTID":1198, "LOCATION":"IN PARK NORTH WEST SIDE", "LAT":40.658662, "LON":-73.88777, "LOCATION_T":"Outdoor"},
 {"OBJECTID":1199, "LOCATION":"IN PARK SOUTH WEST SIDE PLAYGROUND AREA", "LAT":40.658148, "LON":-73.88744, "LOCATION_T":"Outdoor"},
 {"OBJECTID":1200, "LOCATION":"466 Fulton St. (Pole)", "LAT":40.689334, "LON":-73.981975, "LOCATION_T":"Outdoor"},
 {"OBJECTID":1201, "LOCATION":"466 Fulton St. (Pole)", "LAT":40.689334, "LON":-73.981975, "LOCATION_T":"Outdoor"},
 {"OBJECTID":1202, "LOCATION":"469 Fulton St.", "LAT":40.691224, "LON":-73.98662, "LOCATION_T":"Outdoor"},
 {"OBJECTID":1203, "LOCATION":"490 Fulton St.", "LAT":40.689633, "LON":-73.983165, "LOCATION_T":"Outdoor"},
 {"OBJECTID":1204, "LOCATION":"490 Fulton St.", "LAT":40.689633, "LON":-73.983165, "LOCATION_T":"Outdoor"},
 {"OBJECTID":1205, "LOCATION":"490 Fulton St.", "LAT":40.689633, "LON":-73.983165, "LOCATION_T":"Outdoor"},
 {"OBJECTID":1206, "LOCATION":"490 Fulton St.", "LAT":40.689633, "LON":-73.983165, "LOCATION_T":"Outdoor"},
 {"OBJECTID":1207, "LOCATION":"490 Fulton St.", "LAT":40.689633, "LON":-73.983165, "LOCATION_T":"Outdoor"},
 {"OBJECTID":1208, "LOCATION":"54 Willoughby St.", "LAT":40.692144, "LON":-73.986787, "LOCATION_T":"Outdoor"},
 {"OBJECTID":1209, "LOCATION":"54 Willoughby St.", "LAT":40.692144, "LON":-73.986787, "LOCATION_T":"Outdoor"},
 {"OBJECTID":1210, "LOCATION":"573 Fulton St. (Pole)", "LAT":40.689334, "LON":-73.981975, "LOCATION_T":"Outdoor"},
 {"OBJECTID":1211, "LOCATION":"80 Hanson Place", "LAT":40.685308, "LON":-73.974472, "LOCATION_T":"Outdoor"},
 {"OBJECTID":1212, "LOCATION":"80 Hanson Place", "LAT":40.685308, "LON":-73.974472, "LOCATION_T":"Outdoor"},
 {"OBJECTID":1213, "LOCATION":"9 Hanover Place (Gate)", "LAT":40.688825, "LON":-73.982302, "LOCATION_T":"Outdoor"},
 {"OBJECTID":1214, "LOCATION":"9 Hanover Place (Gate)", "LAT":40.688825, "LON":-73.982302, "LOCATION_T":"Outdoor"},
 {"OBJECTID":1215, "LOCATION":"Boro Hall Park 1 (Pole)", "LAT":40.693069, "LON":-73.990089, "LOCATION_T":"Outdoor"},
 {"OBJECTID":1216, "LOCATION":"Boro Hall Park 1 (Pole)", "LAT":40.693069, "LON":-73.990089, "LOCATION_T":"Outdoor"},
 {"OBJECTID":1217, "LOCATION":"Boro Hall Park 2 (Pole)", "LAT":40.693069, "LON":-73.990089, "LOCATION_T":"Outdoor"},
 {"OBJECTID":1218, "LOCATION":"Boro Hall Park 2 (Pole)", "LAT":40.693069, "LON":-73.990089, "LOCATION_T":"Outdoor"},
 {"OBJECTID":1219, "LOCATION":"McLaughlin Park", "LAT":40.696652, "LON":-73.986074, "LOCATION_T":"Outdoor"},
 {"OBJECTID":1220, "LOCATION":"McLaughlin Park", "LAT":40.696652, "LON":-73.986074, "LOCATION_T":"Outdoor"},
 {"OBJECTID":1221, "LOCATION":"McLaughlin Park", "LAT":40.696652, "LON":-73.986074, "LOCATION_T":"Outdoor"},
 {"OBJECTID":1222, "LOCATION":"71st St Ball Field South Area", "LAT":40.720508, "LON":-73.884938, "LOCATION_T":"Outdoor TWC Aerial"},
 {"OBJECTID":1223, "LOCATION":"71st St Ball Field Center Area", "LAT":40.718224, "LON":-73.882524, "LOCATION_T":"Outdoor TWC Aerial"},
 {"OBJECTID":1224, "LOCATION":"71st St Ball Field North Area", "LAT":40.7197, "LON":-73.877119, "LOCATION_T":"Outdoor TWC Aerial"},
 {"OBJECTID":1225, "LOCATION":"Playground", "LAT":40.685616, "LON":-73.852882, "LOCATION_T":"Outdoor TWC Aerial"},
 {"OBJECTID":1226, "LOCATION":"Skate Park", "LAT":40.686245, "LON":-73.853854, "LOCATION_T":"Outdoor TWC Aerial"},
 {"OBJECTID":1227, "LOCATION":"Handball Court", "LAT":40.687073, "LON":-73.853153, "LOCATION_T":"Outdoor TWC Aerial"},
 {"OBJECTID":1228, "LOCATION":"Handball Court", "LAT":40.686889, "LON":-73.854035, "LOCATION_T":"Outdoor TWC Aerial"},
 {"OBJECTID":1229, "LOCATION":"Sr. Dinning Area", "LAT":40.731675, "LON":-73.865607, "LOCATION_T":"Indoor"},
 {"OBJECTID":1230, "LOCATION":"Intersection of 62 Ave & 93rd St", "LAT":40.732253, "LON":-73.865623, "LOCATION_T":"Outdoor TWC Aerial"},
 {"OBJECTID":1231, "LOCATION":"Intersection of 62 Ave & dead end", "LAT":40.732686, "LON":-73.865119, "LOCATION_T":"Outdoor TWC Aerial"},
 {"OBJECTID":1232, "LOCATION":"1st Fl Gymnasium", "LAT":40.731675, "LON":-73.865607, "LOCATION_T":"Indoor"},
 {"OBJECTID":1233, "LOCATION":"2nd Fl After School Rm", "LAT":40.731675, "LON":-73.865607, "LOCATION_T":"Indoor"},
 {"OBJECTID":1234, "LOCATION":"Track & Field", "LAT":40.720079, "LON":-73.949511, "LOCATION_T":"Outdoor"},
 {"OBJECTID":1235, "LOCATION":"Track & Field", "LAT":40.720079, "LON":-73.949511, "LOCATION_T":"Outdoor"},
 {"OBJECTID":1236, "LOCATION":"Dining Hall", "LAT":40.805013, "LON":-73.944909, "LOCATION_T":"Indoor"},
 {"OBJECTID":1237, "LOCATION":"Computer Resource Rm", "LAT":40.80501, "LON":-73.944885, "LOCATION_T":"Indoor"},
 {"OBJECTID":1238, "LOCATION":"Library", "LAT":40.805013, "LON":-73.944909, "LOCATION_T":"Indoor"},
 {"OBJECTID":1239, "LOCATION":"Backstage area", "LAT":40.805013, "LON":-73.944909, "LOCATION_T":"Indoor"},
 {"OBJECTID":1240, "LOCATION":"North Hallway", "LAT":40.805013, "LON":-73.944909, "LOCATION_T":"Indoor"},
 {"OBJECTID":1241, "LOCATION":"Baseball Diamond Corner", "LAT":40.805013, "LON":-73.944909, "LOCATION_T":"Indoor"},
 {"OBJECTID":1242, "LOCATION":"Amplitheater", "LAT":40.805013, "LON":-73.944909, "LOCATION_T":"Indoor"},
 {"OBJECTID":1243, "LOCATION":"Park Area North", "LAT":40.805013, "LON":-73.944909, "LOCATION_T":"Indoor"},
 {"OBJECTID":1244, "LOCATION":"1st Floor Lobby", "LAT":40.757418, "LON":-73.965084, "LOCATION_T":"Indoor"},
 {"OBJECTID":1245, "LOCATION":"2nd fl multi purpose room", "LAT":40.757418, "LON":-73.965084, "LOCATION_T":"Indoor"},
 {"OBJECTID":1256, "LOCATION":"Beach 109 - Street and Beach", "LAT":40.579986, "LON":-73.829855, "LOCATION_T":"Outdoor"},
 {"OBJECTID":1257, "LOCATION":"Beach 116 - Comfort Station and Beach", "LAT":40.577846, "LON":-73.835761, "LOCATION_T":"Outdoor"},
 {"OBJECTID":1258, "LOCATION":"Beach 116 - Rear of Comfort Station", "LAT":40.577878, "LON":-73.835788, "LOCATION_T":"Outdoor"},
 {"OBJECTID":1259, "LOCATION":"Beach 116 - Comfort Station and Beach", "LAT":40.577898, "LON":-73.835601, "LOCATION_T":"Outdoor"},
 {"OBJECTID":1260, "LOCATION":"Beach 116 - Comfort Station and Beach", "LAT":40.577871, "LON":-73.835664, "LOCATION_T":"Outdoor TWC Aerial"},
 {"OBJECTID":1261, "LOCATION":"Playground and BB Court", "LAT":40.596479, "LON":-73.744988, "LOCATION_T":"Outdoor TWC Aerial"},
 {"OBJECTID":1262, "LOCATION":"Playground and BB Court", "LAT":40.596374, "LON":-73.745389, "LOCATION_T":"Outdoor TWC Aerial"},
 {"OBJECTID":1263, "LOCATION":"Parking Lot and BB Court", "LAT":40.596321, "LON":-73.745791, "LOCATION_T":"Outdoor TWC Aerial"},
 {"OBJECTID":1264, "LOCATION":"Parking Lot and Skate Park", "LAT":40.596197, "LON":-73.746262, "LOCATION_T":"Outdoor TWC Aerial"},
 {"OBJECTID":1265, "LOCATION":"Parking Lot and Skate Park", "LAT":40.595714, "LON":-73.747247, "LOCATION_T":"Outdoor TWC Aerial"},
 {"OBJECTID":1266, "LOCATION":"Parking Lot and Skate Park", "LAT":40.595592, "LON":-73.747612, "LOCATION_T":"Outdoor"},
 {"OBJECTID":1267, "LOCATION":"Picnic Area", "LAT":40.687262, "LON":-73.769814, "LOCATION_T":"Outdoor"},
 {"OBJECTID":1268, "LOCATION":"Picnic Area", "LAT":40.68716, "LON":-73.769815, "LOCATION_T":"Outdoor"},
 {"OBJECTID":1269, "LOCATION":"Food pantry and Patio", "LAT":40.687191, "LON":-73.769559, "LOCATION_T":"Indoor"},
 {"OBJECTID":1270, "LOCATION":"Bunker Rm 1 (AKA Rm B4)", "LAT":40.687191, "LON":-73.769559, "LOCATION_T":"Indoor"},
 {"OBJECTID":1271, "LOCATION":"Bunker Rm 2 (AKA Rm B3)", "LAT":40.687191, "LON":-73.769559, "LOCATION_T":"Indoor"},
 {"OBJECTID":1272, "LOCATION":"Bunker Rm 3 (AKA Rm B5)", "LAT":40.687191, "LON":-73.769559, "LOCATION_T":"Indoor"},
 {"OBJECTID":1273, "LOCATION":"Classroom 1 (AKA RM B2)", "LAT":40.687191, "LON":-73.769559, "LOCATION_T":"Indoor"},
 {"OBJECTID":1274, "LOCATION":"Classroom 2 (AKA Rm B1)", "LAT":40.687191, "LON":-73.769559, "LOCATION_T":"Indoor"},
 {"OBJECTID":1275, "LOCATION":"Gym 1", "LAT":40.687191, "LON":-73.769559, "LOCATION_T":"Indoor"},
 {"OBJECTID":1276, "LOCATION":"Workout Rm", "LAT":40.687191, "LON":-73.769559, "LOCATION_T":"Indoor"},
 {"OBJECTID":1277, "LOCATION":"Family waiting area", "LAT":40.687191, "LON":-73.769559, "LOCATION_T":"Indoor"},
 {"OBJECTID":1278, "LOCATION":"Maintenance office - 2nd Fl", "LAT":40.687191, "LON":-73.769559, "LOCATION_T":"Indoor"},
 {"OBJECTID":1279, "LOCATION":"Rec Office #2", "LAT":40.687191, "LON":-73.769559, "LOCATION_T":"Indoor"},
 {"OBJECTID":1280, "LOCATION":"Rec Office #2", "LAT":40.687191, "LON":-73.769559, "LOCATION_T":"Indoor"},
 {"OBJECTID":1281, "LOCATION":"Rehearsal Rm - 2nd Fl", "LAT":40.687191, "LON":-73.769559, "LOCATION_T":"Indoor"},
 {"OBJECTID":1282, "LOCATION":"Theater lounge", "LAT":40.687191, "LON":-73.769559, "LOCATION_T":"Indoor"},
 {"OBJECTID":1283, "LOCATION":"Area off Broadway by Entrance", "LAT":40.625382, "LON":-74.11457, "LOCATION_T":"Outdoor TWC Aerial"},
 {"OBJECTID":1284, "LOCATION":"Area off Broadway and Colonial Court", "LAT":40.625756, "LON":-74.114738, "LOCATION_T":"Outdoor TWC Aerial"},
 {"OBJECTID":1285, "LOCATION":"Area off Broadway and Greenwood Pl", "LAT":40.624698, "LON":-74.114211, "LOCATION_T":"Outdoor TWC Aerial"},
 {"OBJECTID":1286, "LOCATION":"North area off Richmond Terr", "LAT":40.644816, "LON":-74.100443, "LOCATION_T":"Outdoor TWC Aerial"},
 {"OBJECTID":1287, "LOCATION":"North area off Richmond Terr", "LAT":40.644885, "LON":-74.101038, "LOCATION_T":"Outdoor TWC Aerial"},
 {"OBJECTID":1288, "LOCATION":"North area off Richmond Terr", "LAT":40.645123, "LON":-74.101629, "LOCATION_T":"Outdoor TWC Aerial"},
 {"OBJECTID":1289, "LOCATION":"North area off Richmond Terr", "LAT":40.645317, "LON":-74.102285, "LOCATION_T":"Outdoor TWC Aerial"},
 {"OBJECTID":1290, "LOCATION":"North area off Richmond Terr", "LAT":40.645439, "LON":-74.10288, "LOCATION_T":"Outdoor TWC Aerial"},
 {"OBJECTID":1291, "LOCATION":"North area off Richmond Terr", "LAT":40.645453, "LON":-74.103398, "LOCATION_T":"Outdoor TWC Aerial"},
 {"OBJECTID":1292, "LOCATION":"Building P - SE towards barn/farm area", "LAT":40.641798, "LON":-74.101846, "LOCATION_T":"Outdoor"},
 {"OBJECTID":1293, "LOCATION":"Building P - NE towards play area", "LAT":40.641982, "LON":-74.101869, "LOCATION_T":"Outdoor"},
 {"OBJECTID":1294, "LOCATION":"Building G - SW towards social affair area", "LAT":40.64382, "LON":-74.102404, "LOCATION_T":"Outdoor"},
 {"OBJECTID":1295, "LOCATION":"Building P - SW towards meadow", "LAT":40.641797, "LON":-74.102002, "LOCATION_T":"Outdoor"},
 {"OBJECTID":1296, "LOCATION":"Building P - NW towards Botanical Gardens", "LAT":40.641963, "LON":-74.102026, "LOCATION_T":"Outdoor"},
 {"OBJECTID":1297, "LOCATION":"Building G - SE towards social affair area", "LAT":40.643782, "LON":-74.102245, "LOCATION_T":"Outdoor"},